Source ID,Source Name,Year,Source Status,System Name,System ID,Lat NAD83,Lon NAD83,Source Type,Diversion Type,Use Type,Units,Jan,Feb,Mar,Apr,May,Jun,Jul,Aug,Sep,Oct,Nov,Dec,Total
10000001,Oak Grove Spring (WS001),,Active,Leeds Domestic Water Users Association,1000,37.30907717,-113.4294115,Spring,Withdrawal,Water Supplier,,,,,,,,,,,,,,
10000002,Leeds Well (WS002),,Active,Leeds Domestic Water Users Association,1000,37.26701434,-113.3630602,Well,Withdrawal,Water Supplier,,,,,,,,,,,,,,
108540479,"El Dorado Hills Well (8 in, 335 ft deep)",,Inactive,Leeds Domestic Water Users Association,1000,37.26580872,-113.3515934,Well,Withdrawal,Water Supplier,,,,,,,,,,,,,,
10010001,5190S 1050W #1 Well (WS003),,Active,Riverdale City,1001,41.16995949,-112.0056344,Well,Withdrawal,Water Supplier,,,,,,,,,,,,,,
10010002,Golf Well (6`),,Inactive,Riverdale City,1001,41.16461496,-112.0052749,Well,Withdrawal,Water Supplier,,,,,,,,,,,,,,
10010004,Well No. 2 (Roy Well),,Inactive,Riverdale City,1001,41.16574758,-112.0187114,Well,Withdrawal,Water Supplier,,,,,,,,,,,,,,
10020001,Monroe Well,,Inactive,South Monroe Culinary Water,1002,38.62130748,-112.1210713,Well,Withdrawal,Water Supplier,,,,,,,,,,,,,,
10030001,FC Well #2 (16`)  402` (WS003),,Active,Fillmore Municipal Water System,1003,38.96438539,-112.3810406,Well,Withdrawal,Water Supplier,,,,,,,,,,,,,,
10030002,"FC Well #3 (16`) 410` #2, #3 (WS004)",,Active,Fillmore Municipal Water System,1003,38.96435631,-112.3793198,Well,Withdrawal,Water Supplier,,,,,,,,,,,,,,
10030003,Watercress Spring (WS001),,Active,Fillmore Municipal Water System,1003,38.94520566,-112.2572118,Spring,Withdrawal,Water Supplier,,,,,,,,,,,,,,
10030004,Well (16`) FC Airport #1,,Inactive,Fillmore Municipal Water System,1003,38.96427602,-112.35403,Well,Withdrawal,Water Supplier,,,,,,,,,,,,,,
108542788,"Well #1 (16 inch, 385` deep)",,Inactive,Fillmore Municipal Water System,1003,38.98687523,-112.429023,Well,Withdrawal,Water Supplier,,,,,,,,,,,,,,
108542789,"Well #2 (6 inch, 281` deep)",,Inactive,Fillmore Municipal Water System,1003,38.9804505,-112.4288551,Well,Withdrawal,Water Supplier,,,,,,,,,,,,,,
108542790,"Well #3 (16 inches, 510` deep)",,Inactive,Fillmore Municipal Water System,1003,38.96444685,-112.4102166,Well,Withdrawal,Water Supplier,,,,,,,,,,,,,,
108542791,"Well #4 (16 inches, 357` deep)",,Inactive,Fillmore Municipal Water System,1003,38.95120037,-112.43875,Well,Withdrawal,Water Supplier,,,,,,,,,,,,,,
108542792,"Well #5 (12 inches, 600` deep)",,Inactive,Fillmore Municipal Water System,1003,38.94874373,-112.4433008,Well,Withdrawal,Water Supplier,,,,,,,,,,,,,,
108542793,"Well #6 (12 inches, 400` deep)",,Inactive,Fillmore Municipal Water System,1003,38.95356824,-112.4151508,Well,Withdrawal,Water Supplier,,,,,,,,,,,,,,
10040002,"Backup Wells - 2 (12"")",,Inactive,Duchesne City Water Service District,1004,,,Well,Withdrawal,Water Supplier,,,,,,,,,,,,,,
10040003,"Backup Wells - 3 (12"")",,Inactive,Duchesne City Water Service District,1004,,,Well,Withdrawal,Water Supplier,,,,,,,,,,,,,,
10040004,"Backup Well (12"")",,Inactive,Duchesne City Water Service District,1004,,,Well,Withdrawal,Water Supplier,,,,,,,,,,,,,,
10040005,"Backup Well (6"")",,Inactive,Duchesne City Water Service District,1004,,,Well,Withdrawal,Water Supplier,,,,,,,,,,,,,,
10040006,"Backup Wells - 2 (12"")",,Inactive,Duchesne City Water Service District,1004,,,Well,Withdrawal,Water Supplier,,,,,,,,,,,,,,
108543615,Knight Diversion Dam,,Inactive,Duchesne City Water Service District,1004,40.24059732,-110.4120857,Stream,Withdrawal,Water Supplier,,,,,,,,,,,,,,
108543616,Rocky Point Diversion Dam,,Inactive,Duchesne City Water Service District,1004,40.22779978,-110.3982656,Stream,Withdrawal,Water Supplier,,,,,,,,,,,,,,
108543617,Pump from Starvation Reservoir to TP,,Inactive,Duchesne City Water Service District,1004,40.19066067,-110.4444227,Stream,Withdrawal,Water Supplier,,,,,,,,,,,,,,
10050001,"Dago, Copper, Odell Spgs (Culinary)",,Inactive,South Davis Water District (Culinary),1005,,,Spring,Withdrawal,Water Supplier,,,,,,,,,,,,,,
10050002,Enoch Spring (Culinary) (WS004),,Active,South Davis Water District (Culinary),1005,,,Spring,Withdrawal,Water Supplier,,,,,,,,,,,,,,
10050003,Bona Vista Well (Culinary) (WS008),,Active,South Davis Water District (Culinary),1005,40.86164353,-111.879759,Well,Withdrawal,Water Supplier,,,,,,,,,,,,,,
10050004,Val Vista Well 1 (Culinary) (WS005),,Active,South Davis Water District (Culinary),1005,40.85658822,-111.8819704,Well,Withdrawal,Water Supplier,,,,,,,,,,,,,,
10050005,Val Vista Well 2 (Culinary) (WS006),,Active,South Davis Water District (Culinary),1005,40.85663393,-111.8820975,Well,Withdrawal,Water Supplier,,,,,,,,,,,,,,
10050006,Val Vista Well 3 (Culinary) (WS007),,Active,South Davis Water District (Culinary),1005,40.85687511,-111.882155,Well,Withdrawal,Water Supplier,,,,,,,,,,,,,,
10050007,Val Verda Well (Culinary),,Inactive,South Davis Water District (Culinary),1005,40.85942095,-111.8795668,Well,Withdrawal,Water Supplier,,,,,,,,,,,,,,
10050009,Salisbury Well No. 1,,Inactive,South Davis Water District (Culinary),1005,,,Well,Withdrawal,Water Supplier,,,,,,,,,,,,,,
10050020,Elk Springs,,Inactive,South Davis Water District (Culinary),1005,,,Spring,Withdrawal,Water Supplier,,,,,,,,,,,,,,
10050022,Irfred Park Well,,Inactive,South Davis Water District (Culinary),1005,,,Well,Withdrawal,Water Supplier,,,,,,,,,,,,,,
10050023,North Canyon Well (Culinary) (WS011),,Active,South Davis Water District (Culinary),1005,40.85839193,-111.8767227,Well,Withdrawal,Water Supplier,,,,,,,,,,,,,,
10050024,Val Verda Tunnel,,Inactive,South Davis Water District (Culinary),1005,,,Tunnel,Withdrawal,Water Supplier,,,,,,,,,,,,,,
108543146,North Canyon Creek,,Inactive,South Davis Water District (Culinary),1005,40.8418605,-111.8369767,Stream,Withdrawal,Water Supplier,,,,,,,,,,,,,,
108543263,North Canyon Creek,,Inactive,South Davis Water District (Culinary),1005,40.85824678,-111.8755888,Stream,Withdrawal,Water Supplier,,,,,,,,,,,,,,
108543737,Conc Diversion Structure N Canyon Creek,,Inactive,South Davis Water District (Culinary),1005,40.84581729,-111.852048,Stream,Withdrawal,Water Supplier,,,,,,,,,,,,,,
10060001,W Wendover Nevada-Johnson Spring (WS004),,Inactive,Wendover Municipal Water System,1006,,,Spring,Withdrawal,Water Supplier,,,,,,,,,,,,,,
10060002,Cedar Spring Creek Intake (WS007),,Active,Wendover Municipal Water System,1006,,,Spring,Withdrawal,Water Supplier,,,,,,,,,,,,,,
10060003,Little Cedar Spring,,Inactive,Wendover Municipal Water System,1006,,,Spring,Withdrawal,Water Supplier,,,,,,,,,,,,,,
10060004,Munsee Spring (WS002),,Active,Wendover Municipal Water System,1006,41.01415179,-114.0245061,Spring,Withdrawal,Water Supplier,,,,,,,,,,,,,,
10060005,Cottonwood Spring Creek Intake (WS008),,Active,Wendover Municipal Water System,1006,41.02898634,-114.0295003,Spring,Withdrawal,Water Supplier,,,,,,,,,,,,,,
10060007,Morrison Spring Pilot,,Inactive,Wendover Municipal Water System,1006,,,Spring,Withdrawal,Water Supplier,,,,,,,,,,,,,,
10060008,Silverzone Well,,Active,Wendover Municipal Water System,1006,,,Well,Withdrawal,Water Supplier,,,,,,,,,,,,,,
10060009,Neilson Spring (WS003),,Active,Wendover Municipal Water System,1006,41.01688605,-114.0249213,Spring,Withdrawal,Water Supplier,,,,,,,,,,,,,,
10060010,Miners Canyon Springs (WS001),,Active,Wendover Municipal Water System,1006,,,Spring,Withdrawal,Water Supplier,,,,,,,,,,,,,,
10070001,Homestead Well (WS001),,Active,Enoch City Water System (Culinary),1007,37.76192288,-113.0222303,Well,Withdrawal,Water Supplier,,,,,,,,,,,,,,
10070002,Anderson Well (WS004),,Active,Enoch City Water System (Culinary),1007,37.76715522,-113.0225701,Well,Withdrawal,Water Supplier,,,,,,,,,,,,,,
10070003,Woolsey Well (WS002),,Active,Enoch City Water System (Culinary),1007,37.76689606,-113.0298702,Well,Withdrawal,Water Supplier,,,,,,,,,,,,,,
10070004,Well,,Inactive,Enoch City Water System (Culinary),1007,,,Well,Withdrawal,Water Supplier,,,,,,,,,,,,,,
10070005,"Well (12"")",,Inactive,Enoch City Water System (Culinary),1007,,,Well,Withdrawal,Water Supplier,,,,,,,,,,,,,,
10070006,Well,,Inactive,Enoch City Water System (Culinary),1007,,,Well,Withdrawal,Water Supplier,,,,,,,,,,,,,,
10070007,Ravine Well (WS005),,Active,Enoch City Water System (Culinary),1007,37.77425463,-113.0187417,Well,Withdrawal,Water Supplier,,,,,,,,,,,,,,
108540218,Iron Works Well (WS006),,Active,Enoch City Water System (Culinary),1007,37.77679614,-113.0203024,Well,Withdrawal,Domestic,,,,,,,,,,,,,,
108544599,Tank Well (WS008),,Active,Enoch City Water System (Culinary),1007,37.75996883,-113.0024387,Well,Withdrawal,Water Supplier,,,,,,,,,,,,,,
10080001,Well (8`),,Inactive,Snowville Town,1008,41.97511747,-112.6550756,Well,Withdrawal,Water Supplier,,,,,,,,,,,,,,
10080003,Well (16`),,Inactive,Snowville Town,1008,41.96732182,-112.7091129,Well,Withdrawal,Water Supplier,,,,,,,,,,,,,,
10080004,Spring,,Inactive,Snowville Town,1008,,,Spring,Withdrawal,Water Supplier,,,,,,,,,,,,,,
108541054,Snowville Well #2 (WS002),,Active,Snowville Town,1008,41.99487727,-112.6620451,Well,Withdrawal,Water Supplier,,,,,,,,,,,,,,
108541055,Well (20 in. 400 ft deep),,Inactive,Snowville Town,1008,41.98420022,-112.6543726,Well,Withdrawal,Water Supplier,,,,,,,,,,,,,,
108541056,North Hill Well (WS001),,Active,Snowville Town,1008,41.96741615,-112.7088616,Well,Withdrawal,Water Supplier,,,,,,,,,,,,,,
10090003,Power House Well (WS003),,Active,Murray City Corporation (Culinary),1009,40.66657862,-111.8948282,Well,Withdrawal,Water Supplier,,,,,,,,,,,,,,
10090004,6th West #2 Well (WS004),,Active,Murray City Corporation (Culinary),1009,40.6535113,-111.9073811,Well,Withdrawal,Water Supplier,,,,,,,,,,,,,,
10090005,5th East #3 Well (WS005),,Active,Murray City Corporation (Culinary),1009,40.65552224,-111.875802,Well,Withdrawal,Water Supplier,,,,,,,,,,,,,,
10090006,New Howe Well (WS024),,Active,Murray City Corporation (Culinary),1009,40.64881093,-111.8638829,Well,Withdrawal,Water Supplier,,,,,,,,,,,,,,
10090007,3rd West #5 Well (WS007),,Active,Murray City Corporation (Culinary),1009,40.64453263,-111.8986822,Well,Withdrawal,Water Supplier,,,,,,,,,,,,,,
10090008,Vine Street #6 Well (WS008),,Active,Murray City Corporation (Culinary),1009,40.64127839,-111.8634898,Well,Withdrawal,Water Supplier,,,,,,,,,,,,,,
10090009,7th West #7 Well (WS009),,Active,Murray City Corporation (Culinary),1009,40.62830155,-111.9120017,Well,Withdrawal,Water Supplier,,,,,,,,,,,,,,
10090010,9th East #8 Well (WS010),,Active,Murray City Corporation (Culinary),1009,40.63138251,-111.8660401,Well,Withdrawal,Water Supplier,,,,,,,,,,,,,,
10090011,Reservoir #9 Well (WS011),,Active,Murray City Corporation (Culinary),1009,40.62557788,-111.8494754,Well,Withdrawal,Water Supplier,,,,,,,,,,,,,,
10090012,Whitmore West #10 Well (WS012),,Active,Murray City Corporation (Culinary),1009,40.62634998,-111.8293663,Well,Withdrawal,Water Supplier,,,,,,,,,,,,,,
10090013,Whitmore East #11 Well (WS013),,Active,Murray City Corporation (Culinary),1009,40.62636084,-111.8278528,Well,Withdrawal,Water Supplier,,,,,,,,,,,,,,
10090014,McGhie Springs (WS002),,Active,Murray City Corporation (Culinary),1009,40.62100153,-111.7933816,Spring,Withdrawal,Water Supplier,,,,,,,,,,,,,,
10090015,McGhie Spring Well No.16,,Inactive,Murray City Corporation (Culinary),1009,40.62089167,-111.7934938,Well,Withdrawal,Water Supplier,,,,,,,,,,,,,,
10090016,Well 15 - Germania,,Inactive,Murray City Corporation (Culinary),1009,40.65362702,-111.9229216,Well,Withdrawal,Water Supplier,,,,,,,,,,,,,,
10090017,Millrace Well #14 (WS015),,Active,Murray City Corporation (Culinary),1009,40.66883134,-111.8742472,Well,Withdrawal,Water Supplier,,,,,,,,,,,,,,
10090018,360 West #13 Well (WS013),,Active,Murray City Corporation (Culinary),1009,40.66333511,-111.902235,Well,Withdrawal,Water Supplier,,,,,,,,,,,,,,
10090020,45th South Well,,Inactive,Murray City Corporation (Culinary),1009,40.67344337,-111.8993036,Well,Withdrawal,Water Supplier,,,,,,,,,,,,,,
10090021,Park #15 Well,,Inactive,Murray City Corporation (Culinary),1009,40.66075646,-111.8824149,Well,Withdrawal,Water Supplier,,,,,,,,,,,,,,
10090022,Highland Dairy Well (WS020),,Active,Murray City Corporation (Culinary),1009,40.65380381,-111.872477,Well,Withdrawal,Water Supplier,,,,,,,,,,,,,,
10090023,Monroc Well (WS021),,Active,Murray City Corporation (Culinary),1009,40.63061362,-111.8152643,Well,Withdrawal,Water Supplier,,,,,,,,,,,,,,
108540863,Grant Park Well (WS023),,Active,Murray City Corporation (Culinary),1009,40.6370836,-111.7783775,Well,Withdrawal,Water Supplier,,,,,,,,,,,,,,
108543249,McGhie Springs Well (WS025),,Active,Murray City Corporation (Culinary),1009,40.62137718,-111.7947644,Well,Withdrawal,Water Supplier,,,,,,,,,,,,,,
10100001,"Mary`s/Springdell Comm Springs WS012, 34",,Active,Provo City Water Resources Division (Culinary),1010,40.3225641,-111.6207535,Spring,Withdrawal,Water Supplier,,,,,,,,,,,,,,
10100004,Well 5600 North (WS006),,Active,Provo City Water Resources Division (Culinary),1010,40.30737406,-111.6575512,Well,Withdrawal,Water Supplier,,,,,,,,,,,,,,
10100005,Edgemont Well (WS004),,Active,Provo City Water Resources Division (Culinary),1010,40.28192182,-111.6528718,Well,Withdrawal,Water Supplier,,,,,,,,,,,,,,
10100006,Rock Canyon Well (WS003),,Active,Provo City Water Resources Division (Culinary),1010,40.26213215,-111.6418062,Well,Withdrawal,Water Supplier,,,,,,,,,,,,,,
10100007,Brough Well (WS002),,Active,Provo City Water Resources Division (Culinary),1010,40.25503974,-111.6730662,Well,Withdrawal,Water Supplier,,,,,,,,,,,,,,
10100008,Provost Well,,Inactive,Provo City Water Resources Division (Culinary),1010,,,Well,Withdrawal,Water Supplier,,,,,,,,,,,,,,
10100009,North Well (WS001),,Active,Provo City Water Resources Division (Culinary),1010,40.26375333,-111.663504,Well,Withdrawal,Water Supplier,,,,,,,,,,,,,,
10100010,City Center Well,1998,Inactive,Provo City Water Resources Division (Culinary),1010,40.23276874,-111.6642168,Well,Withdrawal,Industrial,kgallons,17270.12571,16292.57143,17270.12571,16618.42286,17270.12571,16618.42286,17270.12571,17270.12571,16618.42286,17270.12571,16618.42286,17270.12571,203657.1429
10100010,City Center Well,1999,Inactive,Provo City Water Resources Division (Culinary),1010,40.23276874,-111.6642168,Well,Withdrawal,Industrial,kgallons,17270.12571,16292.57143,17270.12571,16618.42286,17270.12571,16618.42286,17270.12571,17270.12571,16618.42286,17270.12571,16618.42286,17270.12571,203657.1429
10100010,City Center Well,2002,Inactive,Provo City Water Resources Division (Culinary),1010,40.23276874,-111.6642168,Well,Withdrawal,Industrial,kgallons,17270.12571,16292.57143,17270.12571,16618.42286,17270.12571,16618.42286,17270.12571,10753.09714,0,0,16618.42286,17270.12571,163251.5657
10100010,City Center Well,,Inactive,Provo City Water Resources Division (Culinary),1010,40.23276874,-111.6642168,Well,Withdrawal,Industrial,,,,,,,,,,,,,,
10100011,Spring Dell Spring (WS013),,Active,Provo City Water Resources Division (Culinary),1010,40.32923708,-111.6272553,Spring,Withdrawal,Water Supplier,,,,,,,,,,,,,,
10100012,Big Pipe Spring,,Inactive,Provo City Water Resources Division (Culinary),1010,,,Spring,Withdrawal,Water Supplier,,,,,,,,,,,,,,
10100013,Smith Springs Exchange,,Inactive,Provo City Water Resources Division (Culinary),1010,,,Spring,Withdrawal,Water Supplier,,,,,,,,,,,,,,
10100015,South Fork Springs (OLD),,Inactive,Provo City Water Resources Division (Culinary),1010,,,Spring,Withdrawal,Water Supplier,,,,,,,,,,,,,,
10100016,Slate Canyon Well  (WS005),,Active,Provo City Water Resources Division (Culinary),1010,40.22422985,-111.6301865,Well,Withdrawal,Water Supplier,,,,,,,,,,,,,,
10100017,Rock Canyon Springs (WS024),2019,Active,Provo City Water Resources Division (Culinary),1010,40.26548076,-111.623018,Spring,Withdrawal,Water Supplier,kgallons,1798,1601,1788,11016,68077,82768,67610,30793,14832,11202,8524,1433,301442
10100018,"Parkside,Nunn Springs (WS015), (WS016)",2017,Active,Provo City Water Resources Division (Culinary),1010,40.33265227,-111.6176668,Spring,Withdrawal,Water Supplier,kgallons,108981,93018,150558,150772,171362,194915,274089,251884,177209,144664,125779,114917,1958148
10100018,"Parkside,Nunn Springs (WS015), (WS016)",2018,Active,Provo City Water Resources Division (Culinary),1010,40.33265227,-111.6176668,Spring,Withdrawal,Water Supplier,kgallons,62044.2,48097.685,49448.329,43092.015,42378.5,33682.328,35280.503,40450.757,47390.843,47082.479,45801.343,43431.657,538180.639
10100018,"Parkside,Nunn Springs (WS015), (WS016)",2019,Active,Provo City Water Resources Division (Culinary),1010,40.33265227,-111.6176668,Spring,Withdrawal,Water Supplier,kgallons,43823,40471,36798,63852,44892,92913,92650,130635,129498,96308,66844,62329,901013
10100019,South Fork Springs (Group 6),2019,Active,Provo City Water Resources Division (Culinary),1010,40.33973634,-111.6048562,Spring,Withdrawal,Water Supplier,kgallons,189204,170938,193310,196831,206183,201780,223938,249656,237404,239098,176947,219224,2504513
10100020,Partridge Spring,,Inactive,Provo City Water Resources Division (Culinary),1010,,,Spring,Withdrawal,Water Supplier,,,,,,,,,,,,,,
10100021,Searle Property Spring,,Inactive,Provo City Water Resources Division (Culinary),1010,,,Spring,Withdrawal,Water Supplier,,,,,,,,,,,,,,
10100022,Yellow Jacket Spring (WS011),,Active,Provo City Water Resources Division (Culinary),1010,40.32304628,-111.6238607,Spring,Withdrawal,Water Supplier,,,,,,,,,,,,,,
10100025,Well 3700 North (WS027),,Active,Provo City Water Resources Division (Culinary),1010,40.28274251,-111.6682444,Well,Withdrawal,Water Supplier,,,,,,,,,,,,,,
10100026,Well 4800 North (WS026),,Active,Provo City Water Resources Division (Culinary),1010,40.29789309,-111.6614794,Well,Withdrawal,Water Supplier,,,,,,,,,,,,,,
10100027,Utilities Well (WS008),,Active,Provo City Water Resources Division (Culinary),1010,40.24262035,-111.6629113,Well,Withdrawal,Water Supplier,,,,,,,,,,,,,,
10100028,BYU Well (WS025),,Active,Provo City Water Resources Division (Culinary),1010,40.25297927,-111.6514974,Well,Withdrawal,Water Supplier,,,,,,,,,,,,,,
10100029,Metro`s Thorn Well (WS031),,Active,Provo City Water Resources Division (Culinary),1010,40.2239035,-111.6301082,Well,Withdrawal,Water Supplier,,,,,,,,,,,,,,
10100030,Well `88` (WS029),,Active,Provo City Water Resources Division (Culinary),1010,40.24494547,-111.6735398,Well,Withdrawal,Water Supplier,,,,,,,,,,,,,,
10100031,Deer Creek & Provo River  (CUWCD) WS037,,Active,Provo City Water Resources Division (Culinary),1010,40.32093186,-111.6702987,Reservoir,Withdrawal,Water Supplier,,,,,,,,,,,,,,
10100034,Lost Lake Reservoir,2001,Inactive,Provo City Water Resources Division (Culinary),1010,,,Reservoir,Transfer Out,Water Supplier,kgallons,0,0,0,0,0,0,0,0,0,0,0,0,0
10100034,Lost Lake Reservoir,2002,Inactive,Provo City Water Resources Division (Culinary),1010,,,Reservoir,Transfer Out,Water Supplier,kgallons,,,,,,,,,,,,,
10100034,Lost Lake Reservoir,,Inactive,Provo City Water Resources Division (Culinary),1010,,,Reservoir,Transfer Out,Water Supplier,,,,,,,,,,,,,,
10100035,Lost Lake Reservoir,,Inactive,Provo City Water Resources Division (Culinary),1010,,,Reservoir,Withdrawal,Domestic,,,,,,,,,,,,,,
10100036,Provo River,,Inactive,Provo City Water Resources Division (Culinary),1010,,,Stream,Delivery,Water Supplier,,,,,,,,,,,,,,
108540536,Timpview Well (Timp Kiwainis) (WS032),,Active,Provo City Water Resources Division (Culinary),1010,40.27715679,-111.6463672,Well,Withdrawal,Domestic,,,,,,,,,,,,,,
108541706,Canyon Road Well (WS038),,Active,Provo City Water Resources Division (Culinary),1010,40.27077597,-111.6533425,Well,Withdrawal,Water Supplier,,,,,,,,,,,,,,
108541707,Riverwoods Well (WS036),,Active,Provo City Water Resources Division (Culinary),1010,40.29593387,-111.6568878,Well,Withdrawal,Water Supplier,,,,,,,,,,,,,,
108545265,"Thayer Flat/Rotary Park Springs WS017,18",2018,Active,Provo City Water Resources Division (Culinary),1010,40.33644018,-111.6118517,Spring,Withdrawal,Water Supplier,kgallons,80351,68222,76570,75648,80551,72772,75501,80497,73899,70504,66362,66857,887734
108545265,"Thayer Flat/Rotary Park Springs WS017,18",2019,Active,Provo City Water Resources Division (Culinary),1010,40.33644018,-111.6118517,Spring,Withdrawal,Water Supplier,kgallons,67456,50857,73255,64812,128404,130504,138480,147188,120398,95904,95102,80908,1193268
10110001,So. Robinson Spring (WS001),1996,Active,South Robinson Spring Water Users,1011,41.05113675,-111.6711419,Spring,Withdrawal,Water Supplier,kgallons,821.5333632,742.0223561,821.5333632,795.0318665,821.5333632,795.0318665,821.5333632,821.5333632,795.0318665,821.5333632,795.0318665,821.5333632,9673.173372
10110001,So. Robinson Spring (WS001),1997,Active,South Robinson Spring Water Users,1011,41.05113675,-111.6711419,Spring,Withdrawal,Water Supplier,kgallons,821.5561728,742.0516827,821.5561728,795.0546761,821.5561728,795.0546761,821.5561728,821.5561728,795.0546761,821.5561728,795.0546761,821.5561728,9673.163597
10110001,So. Robinson Spring (WS001),1998,Active,South Robinson Spring Water Users,1011,41.05113675,-111.6711419,Spring,Withdrawal,Water Supplier,kgallons,0,0,0,0,0,0,0,0,0,0,0,0,9672.873589
10110001,So. Robinson Spring (WS001),1999,Active,South Robinson Spring Water Users,1011,41.05113675,-111.6711419,Spring,Withdrawal,Water Supplier,kgallons,821.5561728,742.0516827,821.5561728,795.0546761,821.5561728,795.0546761,821.5561728,821.5561728,795.0546761,821.5561728,795.0546761,821.5561728,9673.163597
10110001,So. Robinson Spring (WS001),2000,Active,South Robinson Spring Water Users,1011,41.05113675,-111.6711419,Spring,Withdrawal,Water Supplier,kgallons,821.5333632,742.0223561,821.5333632,795.028608,821.5333632,795.0318665,821.5333632,821.5333632,795.0318665,821.5333632,795.0318665,821.5333632,9672.880106
10110001,So. Robinson Spring (WS001),2001,Active,South Robinson Spring Water Users,1011,41.05113675,-111.6711419,Spring,Withdrawal,Water Supplier,kgallons,821.1456,742.9412571,821.1456,795.0774857,821.1456,795.0774857,821.1456,821.1456,795.0774857,821.1456,795.0774857,821.1456,9671.2704
10110001,So. Robinson Spring (WS001),2002,Active,South Robinson Spring Water Users,1011,41.05113675,-111.6711419,Spring,Withdrawal,Water Supplier,kgallons,821.5320508,742.0235294,821.5320508,795.0312105,821.5320508,795.0312105,821.5320508,821.5320508,795.0312105,821.5320508,795.0312105,821.5320508,9672.872727
10110001,So. Robinson Spring (WS001),2003,Active,South Robinson Spring Water Users,1011,41.05113675,-111.6711419,Spring,Withdrawal,Water Supplier,kgallons,821.5320508,742.0235294,821.5320508,795.0312105,821.5320508,795.0312105,821.5320508,821.5320508,795.0312105,821.5320508,795.0312105,821.5320508,9672.872727
10110001,So. Robinson Spring (WS001),2006,Active,South Robinson Spring Water Users,1011,41.05113675,-111.6711419,Spring,Withdrawal,Water Supplier,kgallons,821.475,741.972,821.475,794.976,821.475,794.976,821.475,821.475,794.976,821.475,794.976,821.475,9672.201
10110001,So. Robinson Spring (WS001),2007,Active,South Robinson Spring Water Users,1011,41.05113675,-111.6711419,Spring,Withdrawal,Water Supplier,kgallons,821.475,741.972,821.475,794.976,821.475,794.976,821.475,821.475,794.976,821.475,794.976,821.475,9672.201
10110001,So. Robinson Spring (WS001),2008,Active,South Robinson Spring Water Users,1011,41.05113675,-111.6711419,Spring,Withdrawal,Water Supplier,kgallons,821.475,741.972,821.475,794.976,821.475,794.976,821.475,821.475,794.976,821.475,794.976,821.475,9672.201
10110001,So. Robinson Spring (WS001),2009,Active,South Robinson Spring Water Users,1011,41.05113675,-111.6711419,Spring,Withdrawal,Water Supplier,kgallons,821.475,741.972,821.475,794.976,821.475,794.976,821.475,821.475,794.976,821.475,794.976,821.475,9672.201
10110001,So. Robinson Spring (WS001),2019,Active,South Robinson Spring Water Users,1011,41.05113675,-111.6711419,Spring,Withdrawal,Water Supplier,kgallons,443.567,443.567,443.567,443.567,443.567,443.567,443.567,443.567,443.567,443.567,443.567,443.567,5322.804
10120001,Well 2 (WS002),,Inactive,Monte Vista Comm. & Water Company,1012,37.69082849,-113.1249172,Well,Withdrawal,Water Supplier,,,,,,,,,,,,,,
108541924,MONTE VISTA Well #1& 2 (WS001)(WS002),2015,Active,Monte Vista Comm. & Water Company,1012,37.69076997,-113.124964,Well,Withdrawal,Water Supplier,kgallons,700,700,700,1000,1400,1700,2100,1900,1700,1100,900,700,14600
108541924,MONTE VISTA Well #1& 2 (WS001)(WS002),,Active,Monte Vista Comm. & Water Company,1012,37.69076997,-113.124964,Well,Withdrawal,Water Supplier,,,,,,,,,,,,,,
10130001,"Well no.2 (8"")",,Active,Altamont Town Water,1013,,,Well,Withdrawal,Water Supplier,,,,,,,,,,,,,,
10130002,Well no.1 (10`),,Active,Altamont Town Water,1013,40.37390863,-110.2941007,Well,Withdrawal,Water Supplier,,,,,,,,,,,,,,
10130003,"Well no.5 (12"")",,Active,Altamont Town Water,1013,,,Well,Withdrawal,Water Supplier,,,,,,,,,,,,,,
10130004,"Well no.3 (12"")",,Active,Altamont Town Water,1013,,,Well,Withdrawal,Water Supplier,,,,,,,,,,,,,,
10130005,"Well no.4 (10"")",,Active,Altamont Town Water,1013,,,Well,Withdrawal,Water Supplier,,,,,,,,,,,,,,
10150001,Grassy Trail Creek Res. WS002),,Active,East Carbon City and Sunnyside City,1015,39.62234769,-110.3958687,Reservoir,Withdrawal,Water Supplier,,,,,,,,,,,,,,
10150009,Well 90-1,,Inactive,East Carbon City and Sunnyside City,1015,,,Well,Withdrawal,Water Supplier,,,,,,,,,,,,,,
10160001,City Creek Spring #1  (WS001),,Active,Junction Town,1016,38.27423865,-112.3160837,Spring,Withdrawal,Water Supplier,,,,,,,,,,,,,,
10160002,Town Well (WS002),,Active,Junction Town,1016,38.23757206,-112.2239918,Well,Withdrawal,Water Supplier,,,,,,,,,,,,,,
10170002,Kid Well # 7,,Inactive,Kearns Improvement District,1017,40.65325446,-112.0051966,Well,Withdrawal,Water Supplier,,,,,,,,,,,,,,
10170003,Well #3 (WS005),,Active,Kearns Improvement District,1017,40.6395183,-112.0893309,Well,Withdrawal,Water Supplier,,,,,,,,,,,,,,
10170004,Well #4 (WS006),,Active,Kearns Improvement District,1017,40.62303703,-112.0745869,Well,Withdrawal,Water Supplier,,,,,,,,,,,,,,
10170005,Well #5 (WS007),,Active,Kearns Improvement District,1017,40.6214313,-112.0748206,Well,Withdrawal,Water Supplier,,,,,,,,,,,,,,
10170006,Well #6 (WS008),,Active,Kearns Improvement District,1017,40.61301494,-112.0833872,Well,Withdrawal,Water Supplier,,,,,,,,,,,,,,
10170007,Well #1 (WS003),,Active,Kearns Improvement District,1017,40.64013063,-112.0945567,Well,Withdrawal,Water Supplier,,,,,,,,,,,,,,
10170008,Well #2 (WS004),,Active,Kearns Improvement District,1017,40.63982288,-112.0899342,Well,Withdrawal,Water Supplier,,,,,,,,,,,,,,
10170009,Well #8 5350 W 5400 S (WS009),,Active,Kearns Improvement District,1017,40.65462044,-112.0184527,Well,Withdrawal,Water Supplier,,,,,,,,,,,,,,
10170010,Well #9 4550 S 6000 W (WS010),,Active,Kearns Improvement District,1017,40.67043514,-112.0348896,Well,Withdrawal,Water Supplier,,,,,,,,,,,,,,
10170011,Monroc Well #10 (WS011),,Active,Kearns Improvement District,1017,40.64138511,-112.0156935,Well,Withdrawal,Water Supplier,,,,,,,,,,,,,,
10170012,Well #11 (WS012),,Active,Kearns Improvement District,1017,40.62422559,-112.0242038,Well,Withdrawal,Water Supplier,,,,,,,,,,,,,,
10170013,Well #12 (WS013),,Active,Kearns Improvement District,1017,40.67068471,-112.0424591,Well,Withdrawal,Water Supplier,,,,,,,,,,,,,,
108541446,Well,,Inactive,Kearns Improvement District,1017,40.66927108,-111.9864506,Well,Delivery,Water Supplier,,,,,,,,,,,,,,
108541447,Well,,Inactive,Kearns Improvement District,1017,40.67088867,-111.9835173,Well,Delivery,Water Supplier,,,,,,,,,,,,,,
108542780,"Well (16 inch, 700-1300` deep)",,Inactive,Kearns Improvement District,1017,40.63833024,-112.0412485,Well,Withdrawal,Water Supplier,,,,,,,,,,,,,,
108543138,Hercules Tank Well (WS014),,Active,Kearns Improvement District,1017,40.65198139,-112.0427508,Well,Withdrawal,Water Supplier,,,,,,,,,,,,,,
10180001,Weber Basin WCD Plant #2,,Inactive,Ogden City Division of Water Utilities,1018,,,Drain,Transfer In,Water Supplier,,,,,,,,,,,,,,
10180002,Pine View Reservoir (WS001),2013,Active,Ogden City Division of Water Utilities,1018,41.25432213,-111.8422569,Reservoir,Withdrawal,Water Supplier,kgallons,0,0,0,86001.96754,127101.6082,178094.0983,229790.4274,223801.2782,148001.7189,28498.96594,0,0,1021290.064
10180002,Pine View Reservoir (WS001),,Active,Ogden City Division of Water Utilities,1018,41.25432213,-111.8422569,Reservoir,Withdrawal,Water Supplier,,,,,,,,,,,,,,
10180003,Weber Basin - Pine View,,Inactive,Ogden City Division of Water Utilities,1018,,,Reservoir,Transfer In,Water Supplier,,,,,,,,,,,,,,
10180005,North Airport Well,,Inactive,Ogden City Division of Water Utilities,1018,41.1925999,-112.0064018,Well,Withdrawal,Water Supplier,,,,,,,,,,,,,,
10180006,Cold Water Creek,2013,Active,Ogden City Division of Water Utilities,1018,41.24113871,-111.8917923,Stream,Withdrawal,Water Supplier,kgallons,0,0,0,3704.930743,1955.108571,361.6950857,2121.2928,2522.090057,87.97988571,0,0,0,10753.09714
10180006,Cold Water Creek,,Active,Ogden City Division of Water Utilities,1018,41.24113871,-111.8917923,Stream,Withdrawal,Water Supplier,,,,,,,,,,,,,,
10180007,Warm Water Creek,,Active,Ogden City Division of Water Utilities,1018,41.23791524,-111.9086725,Stream,Withdrawal,Water Supplier,,,,,,,,,,,,,,
10180008,Wheeler Creek (WS002),,Active,Ogden City Division of Water Utilities,1018,,,Stream,Withdrawal,Water Supplier,,,,,,,,,,,,,,
10180009,Ogden Bench Canal,2018,Active,Ogden City Division of Water Utilities,1018,41.25286713,-111.8422382,Reservoir,Withdrawal,Water Supplier,kgallons,0,0,0,0,0,93048.3,96149.91,96149.91,93048.3,0,0,0,378396.42
10180009,Ogden Bench Canal,2019,Active,Ogden City Division of Water Utilities,1018,41.25286713,-111.8422382,Reservoir,Withdrawal,Water Supplier,kgallons,0,0,0,0,3405.147429,102154.4229,97934.64686,96468.31543,77797.02857,0,0,0,377759.5611
10180010,Airport Well (WS017),,Active,Ogden City Division of Water Utilities,1018,41.18978289,-112.0092336,Well,Withdrawal,Water Supplier,,,,,,,,,,,,,,
10180011,"Well (6"")",,Inactive,Ogden City Division of Water Utilities,1018,,,Well,Withdrawal,Water Supplier,,,,,,,,,,,,,,
10180013,"Well (12"")",,Inactive,Ogden City Division of Water Utilities,1018,,,Well,Withdrawal,Water Supplier,,,,,,,,,,,,,,
10180014,"Well (12"")",,Inactive,Ogden City Division of Water Utilities,1018,,,Well,Withdrawal,Water Supplier,,,,,,,,,,,,,,
10180015,23rd Street Well,,Inactive,Ogden City Division of Water Utilities,1018,41.22480545,-111.9509135,Well,Withdrawal,Water Supplier,,,,,,,,,,,,,,
10180016,S. Fork Skull Creek Res.,,Inactive,Ogden City Division of Water Utilities,1018,,,Reservoir,Withdrawal,Water Supplier,,,,,,,,,,,,,,
10180017,Ogden Canyon Springs,,Inactive,Ogden City Division of Water Utilities,1018,,,Spring,Withdrawal,Water Supplier,,,,,,,,,,,,,,
108540141,Well (10`),,Inactive,Ogden City Division of Water Utilities,1018,41.19136703,-112.0082984,Well,Withdrawal,Domestic,,,,,,,,,,,,,,
108541125,Burch Creek,,Inactive,Ogden City Division of Water Utilities,1018,41.17369355,-111.9219471,Stream,Withdrawal,Water Supplier,,,,,,,,,,,,,,
108541126,Burch Creek,,Inactive,Ogden City Division of Water Utilities,1018,41.17256716,-111.9240896,Stream,Withdrawal,Water Supplier,,,,,,,,,,,,,,
108541127,Waterfall Canyon Creek,,Inactive,Ogden City Division of Water Utilities,1018,41.19782839,-111.928668,Stream,Withdrawal,Water Supplier,,,,,,,,,,,,,,
108541128,Burch Creek,,Inactive,Ogden City Division of Water Utilities,1018,41.1704349,-111.9280565,Stream,Withdrawal,Water Supplier,,,,,,,,,,,,,,
108541129,Well,,Inactive,Ogden City Division of Water Utilities,1018,41.17588427,-111.9638936,Well,Withdrawal,Water Supplier,,,,,,,,,,,,,,
108542403,Taylor Canyon Well (WS012),,Active,Ogden City Division of Water Utilities,1018,41.21492021,-111.9282666,Well,Withdrawal,Water Supplier,,,,,,,,,,,,,,
108542716,Mt. Ogden Well Site,,Inactive,Ogden City Division of Water Utilities,1018,41.20319188,-111.9359563,Well,Withdrawal,Water Supplier,,,,,,,,,,,,,,
108542717,Old Post Well Site,,Inactive,Ogden City Division of Water Utilities,1018,41.17743218,-111.942822,Well,Withdrawal,Water Supplier,,,,,,,,,,,,,,
108543645,Bues Creek,,Inactive,Ogden City Division of Water Utilities,1018,41.17895709,-111.93857,Stream,Withdrawal,Water Supplier,,,,,,,,,,,,,,
108543646,Bues Creek,,Inactive,Ogden City Division of Water Utilities,1018,41.18414255,-111.932076,Stream,Withdrawal,Water Supplier,,,,,,,,,,,,,,
10190001,Woodland Spring (WS001),2019,Active,Woodland Mutual Water Company,1019,40.56936575,-111.2123078,Spring,Withdrawal,Water Supplier,kgallons,0,0,0,0,1589.4375,1589.4375,1589.4375,1589.4375,1589.4375,1589.4375,0,0,9536.625
10190002,Woodland Well 1 (WS002),2019,Active,Woodland Mutual Water Company,1019,40.58207602,-111.2184994,Well,Withdrawal,Water Supplier,kgallons,2951.8125,2951.8125,2951.8125,2951.8125,0,0,0,0,0,0,2951.8125,2951.8125,17710.875
10200001,Manderfield Well (WS001),2019,Active,Manderfield Municipal Water System,1020,38.36410605,-112.6390211,Well,Withdrawal,Water Supplier,kgallons,977.5542857,977.5542857,977.5542857,977.5542857,977.5542857,977.5542857,1303.405714,977.5542857,977.5542857,977.5542857,977.5542857,977.5542857,12056.50286
10210001,"Well no.1 (8"")",,Inactive,Johnson Water District,1021,,,Well,Withdrawal,Water Supplier,,,,,,,,,,,,,,
10210002,"Well no.2 (8"")",,Inactive,Johnson Water District,1021,,,Well,Withdrawal,Water Supplier,,,,,,,,,,,,,,
10210003,Well No. 3 (Industrial Use),,Active,Johnson Water District,1021,40.27927772,-110.1457282,Well,Withdrawal,Industrial,,,,,,,,,,,,,,
10210004,"Well no.4 (12"")",,Inactive,Johnson Water District,1021,,,Well,Withdrawal,Water Supplier,,,,,,,,,,,,,,
10210005,"Well no.5 (12"")",,Inactive,Johnson Water District,1021,,,Well,Withdrawal,Water Supplier,,,,,,,,,,,,,,
10210006,"Well no.6 (8"")",,Inactive,Johnson Water District,1021,,,Well,Withdrawal,Water Supplier,,,,,,,,,,,,,,
10210008,Bought from Duchesne City,,Inactive,Johnson Water District,1021,,,Reservoir,Transfer In,Water Supplier,,,,,,,,,,,,,,
10220001,Parker South Spring (WS002),,Active,Greenwich Water Company,1022,38.41368106,-111.8789053,Spring,Withdrawal,Water Supplier,,,,,,,,,,,,,,
108544346,Parker North Spring (WS001),,Active,Greenwich Water Company,1022,38.42088134,-111.8745913,Spring,Withdrawal,Domestic,,,,,,,,,,,,,,
10230001,4000 South Main Well (WS004),,Active,Nibley City,1023,41.65990383,-111.8332425,Well,Withdrawal,Water Supplier,,,,,,,,,,,,,,
10230002,Yeates Springs,,Inactive,Nibley City,1023,41.6445119,-111.822063,Spring,Withdrawal,Water Supplier,,,,,,,,,,,,,,
108540642,Nelson Well (WS006),,Active,Nibley City,1023,41.66533959,-111.8395017,Well,Withdrawal,Water Supplier,,,,,,,,,,,,,,
108544222,640 West Well (WS007),,Active,Nibley City,1023,41.66532777,-111.8488918,Well,Withdrawal,Water Supplier,,,,,,,,,,,,,,
10240001,Town Well (WS001),1996,Active,Leamington Town Water,1024,39.52974717,-112.2830618,Well,Withdrawal,Water Supplier,kgallons,0,0,0,0,0,0,504.0335067,1728.120466,576.0401554,0,0,0,2808.194128
10240001,Town Well (WS001),1997,Active,Leamington Town Water,1024,39.52974717,-112.2830618,Well,Withdrawal,Water Supplier,kgallons,0,0,0,0,0,0,504.0335067,1728.120466,576.0401554,0,0,0,2808.194128
10240001,Town Well (WS001),1998,Active,Leamington Town Water,1024,39.52974717,-112.2830618,Well,Withdrawal,Water Supplier,kgallons,0,0,0,0,0,0,0,0,0,0,0,0,0
10240001,Town Well (WS001),,Active,Leamington Town Water,1024,39.52974717,-112.2830618,Well,Withdrawal,Water Supplier,,,,,,,,,,,,,,
10240002,Fool Creek Canyon Springs Group (SS026),1996,Active,Leamington Town Water,1024,39.42934976,-112.2362981,Spring,Withdrawal,Water Supplier,kgallons,3000.2086,3000.2086,4300.300405,4500.31127,4500.31127,4250.295245,4000.279219,3500.243909,3500.243909,3000.2086,3000.2086,3000.2086,43553.02823
10240002,Fool Creek Canyon Springs Group (SS026),1997,Active,Leamington Town Water,1024,39.42934976,-112.2362981,Spring,Withdrawal,Water Supplier,kgallons,3000.2086,3000.2086,4300.300405,4500.31127,4500.31127,4250.295245,4000.279219,3500.243909,3500.243909,3000.2086,3000.2086,3000.2086,43553.02823
10240002,Fool Creek Canyon Springs Group (SS026),1998,Active,Leamington Town Water,1024,39.42934976,-112.2362981,Spring,Withdrawal,Water Supplier,kgallons,3000.2086,3000.2086,4300.300405,4500.31127,4500.31127,4250.295245,4000.279219,4000.279219,4000.279219,3500.243909,3500.243909,3000.2086,45553.16947
10240002,Fool Creek Canyon Springs Group (SS026),,Active,Leamington Town Water,1024,39.42934976,-112.2362981,Spring,Withdrawal,Water Supplier,,,,,,,,,,,,,,
10250003,Well (8`),,Inactive,Orderville Town Water System,1025,37.28056177,-112.6282545,Well,Withdrawal,Water Supplier,,,,,,,,,,,,,,
10250004,North  Spring (WS001),2019,Active,Orderville Town Water System,1025,,,Spring,Withdrawal,Water Supplier,kgallons,3066,3066,3066,3066,3066,3066,3066,3066,3066,3066,3066,3060,36786
10250005,Red Hollow Well 2 (WS005),,Active,Orderville Town Water System,1025,37.27141375,-112.6260477,Well,Withdrawal,Water Supplier,,,,,,,,,,,,,,
108541622,Red Hollow Well 1 (WS003),,Active,Orderville Town Water System,1025,37.27167606,-112.6269505,Well,Withdrawal,Water Supplier,,,,,,,,,,,,,,
10260001,Clawson,,Active,Clawson Water System - Castle Valley S.S.D. (Culinary),1026,,,Spring,Withdrawal,Water Supplier,,,,,,,,,,,,,,
10270001,C-5 Well (WS005),,Active,Farmington Culinary Water System,1027,40.96937466,-111.8741429,Well,Withdrawal,Water Supplier,,,,,,,,,,,,,,
10270002,Well,,Inactive,Farmington Culinary Water System,1027,,,Well,Withdrawal,Water Supplier,,,,,,,,,,,,,,
10270003,550 N 100 W (WS002),,Active,Farmington Culinary Water System,1027,40.98943521,-111.8901283,Well,Withdrawal,Water Supplier,,,,,,,,,,,,,,
10270004,Woodland Park Well (WS007),,Active,Farmington Culinary Water System,1027,40.97592529,-111.8844525,Well,Withdrawal,Water Supplier,,,,,,,,,,,,,,
10270005,Rudd Creek Spring,,Inactive,Farmington Culinary Water System,1027,,,Spring,Withdrawal,Water Supplier,,,,,,,,,,,,,,
10270008,Well No. 3 (14`),,Inactive,Farmington Culinary Water System,1027,40.96528696,-111.8836493,Well,Withdrawal,Water Supplier,,,,,,,,,,,,,,
108543072,Community Center Well (WS008),,Active,Farmington Culinary Water System,1027,40.97893053,-111.8877957,Well,Withdrawal,Water Supplier,,,,,,,,,,,,,,
108543135,"Existing Well (11 inch, 305` deep)",,Inactive,Farmington Culinary Water System,1027,40.96933922,-111.8741099,Well,Withdrawal,Water Supplier,,,,,,,,,,,,,,
10280001,Ash Creek Spring,,Inactive,La Verkin City (Culinary),1028,37.23190464,-113.2857292,Spring,Withdrawal,Water Supplier,,,,,,,,,,,,,,
10280002,Upper Ash Creek Springs,,Inactive,La Verkin City (Culinary),1028,37.23429656,-113.2826203,Spring,Withdrawal,Water Supplier,,,,,,,,,,,,,,
10280003,Toquerville Springs,,Inactive,La Verkin City (Culinary),1028,37.26466647,-113.2809525,Spring,Withdrawal,Water Supplier,,,,,,,,,,,,,,
108543989,Riverwood Master Meter,,Active,La Verkin City (Culinary),1028,37.2188049,-113.2754913,Spring,Withdrawal,Water Supplier,,,,,,,,,,,,,,
10290001,Birch Bottom Spring,,Inactive,Covered Bridge Canyon,1029,,,Spring,Withdrawal,Water Supplier,,,,,,,,,,,,,,
10290002,Well No. 1 (WS002),1998,Active,Covered Bridge Canyon,1029,40.02362309,-111.570109,Well,Withdrawal,Water Supplier,kgallons,0,0,0,0,0,0,0,0,0,0,0,0,13429.93404
10290002,Well No. 1 (WS002),2001,Active,Covered Bridge Canyon,1029,40.02362309,-111.570109,Well,Withdrawal,Water Supplier,kgallons,,,,,,,,,,,,,21298.17904
10290002,Well No. 1 (WS002),2002,Active,Covered Bridge Canyon,1029,40.02362309,-111.570109,Well,Withdrawal,Water Supplier,kgallons,,,,,,,,,,,,,20769.44232
10290002,Well No. 1 (WS002),,Active,Covered Bridge Canyon,1029,40.02362309,-111.570109,Well,Withdrawal,Water Supplier,,,,,,,,,,,,,,
10300004,Bell Canyon Irrigation,,Active,Bell Canyon Irrigation Company,1030,,,Stream,Withdrawal,Irrigation,,,,,,,,,,,,,,
10310001,Spring Creek Well (WS003),,Active,City of Enterprise (Culinary),1031,37.57004412,-113.7280931,Well,Withdrawal,Water Supplier,,,,,,,,,,,,,,
10310002,200 West  Well (WS004),,Active,City of Enterprise (Culinary),1031,37.57088495,-113.7255807,Well,Withdrawal,Water Supplier,,,,,,,,,,,,,,
10310003,Bullrush Springs  (WS002),,Active,City of Enterprise (Culinary),1031,37.5115145,-113.71422,Spring,Withdrawal,Water Supplier,,,,,,,,,,,,,,
10310004,Pendleton Spring (WS001),,Active,City of Enterprise (Culinary),1031,37.53765453,-113.7365203,Spring,Withdrawal,Water Supplier,,,,,,,,,,,,,,
108540100,Well No 2,,Inactive,City of Enterprise (Culinary),1031,,,Drain,Delivery,Agricultural,,,,,,,,,,,,,,
10320001,Little Canyon Springs,,Inactive,Fruit Heights Culinary Water System (Culinary),1032,41.02567593,-111.8894037,Spring,Withdrawal,Water Supplier,,,,,,,,,,,,,,
10320002,Well 1,,Active,Fruit Heights Culinary Water System (Culinary),1032,41.02855054,-111.900107,Well,Withdrawal,Water Supplier,,,,,,,,,,,,,,
10320003,Baer Canyon Springs,,Inactive,Fruit Heights Culinary Water System (Culinary),1032,41.03456385,-111.8837133,Spring,Withdrawal,Water Supplier,,,,,,,,,,,,,,
10320005,Well 2,,Inactive,Fruit Heights Culinary Water System (Culinary),1032,41.02904014,-111.9091913,Well,Withdrawal,Irrigation,,,,,,,,,,,,,,
108541719,Switchback Springs,,Inactive,Fruit Heights Culinary Water System (Culinary),1032,41.02571977,-111.878856,Spring,Withdrawal,Water Supplier,,,,,,,,,,,,,,
10330001,6th W Well (16`),,Inactive,Pleasant View City Culinary Water,1033,41.31452233,-111.9921649,Well,Withdrawal,Irrigation,,,,,,,,,,,,,,
10330002,Macs Well (North) (WS004),,Active,Pleasant View City Culinary Water,1033,41.34719635,-111.9905012,Well,Withdrawal,Water Supplier,,,,,,,,,,,,,,
10330003,Alder Creek Spring (WS002),1996,Active,Pleasant View City Culinary Water,1033,41.34156358,-111.9746865,Spring,Withdrawal,Water Supplier,kgallons,2000.13798,2500.17329,3000.2086,3500.243909,3500.243909,3000.2086,3000.2086,3000.2086,3000.2086,2000.13798,2500.17329,2500.17329,33502.32991
10330003,Alder Creek Spring (WS002),1997,Active,Pleasant View City Culinary Water,1033,41.34156358,-111.9746865,Spring,Withdrawal,Water Supplier,kgallons,2000.13798,2500.17329,3000.2086,3500.243909,3500.243909,3000.2086,3000.2086,3000.2086,3000.2086,2000.13798,2500.17329,2500.17329,33502.32665
10330003,Alder Creek Spring (WS002),1998,Active,Pleasant View City Culinary Water,1033,41.34156358,-111.9746865,Spring,Withdrawal,Water Supplier,kgallons,2000.13798,2500.17329,3000.2086,3500.243909,3500.243909,3000.2086,3000.2086,3000.2086,2500.17329,2000.13798,2000.13798,2000.13798,32002.22072
10330003,Alder Creek Spring (WS002),,Active,Pleasant View City Culinary Water,1033,41.34156358,-111.9746865,Spring,Withdrawal,Water Supplier,,,,,,,,,,,,,,
10330004,Alder Creek # 2 Well (WS005),,Active,Pleasant View City Culinary Water,1033,41.34100538,-111.9777018,Well,Withdrawal,Water Supplier,,,,,,,,,,,,,,
10330006,Little Missouri Spring (WS001),1996,Active,Pleasant View City Culinary Water,1033,41.33343532,-111.9965569,Spring,Withdrawal,Water Supplier,kgallons,250.0160256,250.0160256,280.0204251,250.0160256,250.0160256,200.0141239,200.0141239,200.0141239,300.0211858,230.0152649,250.0160256,250.0160256,2910.201918
10330006,Little Missouri Spring (WS001),1997,Active,Pleasant View City Culinary Water,1033,41.33343532,-111.9965569,Spring,Withdrawal,Water Supplier,kgallons,3.001091657,3.001091657,3.001091657,3.001091657,3.001091657,1.000363886,1.401161143,3.001091657,3.001091657,3.001091657,3.001091657,3.001091657,32.4124416
10330006,Little Missouri Spring (WS001),1998,Active,Pleasant View City Culinary Water,1033,41.33343532,-111.9965569,Spring,Withdrawal,Water Supplier,kgallons,25.00258011,25.00258011,28.00041326,25.00258011,25.00258011,20.00076069,20.00076069,20.00076069,20.00076069,23.00185234,25.00258011,25.00258011,281.020789
10330006,Little Missouri Spring (WS001),1999,Active,Pleasant View City Culinary Water,1033,41.33343532,-111.9965569,Spring,Withdrawal,Water Supplier,kgallons,250.0160256,250.0160256,280.0204251,250.0160256,250.0160256,200.0141239,200.0141239,200.0141239,250.0160256,250.0160256,250.0160256,250.0160256,2880.191002
10330006,Little Missouri Spring (WS001),2000,Active,Pleasant View City Culinary Water,1033,41.33343532,-111.9965569,Spring,Withdrawal,Water Supplier,kgallons,1314.090383,1314.090383,1314.090383,1314.090383,1314.090383,1314.090383,1314.090383,1314.090383,1314.090383,1314.090383,1314.090383,1314.090383,15769.08459
10330006,Little Missouri Spring (WS001),2001,Active,Pleasant View City Culinary Water,1033,41.33343532,-111.9965569,Spring,Withdrawal,Water Supplier,kgallons,1314.091256,1314.091256,1314.091256,1314.091256,1314.091256,1314.091256,1314.091256,1314.091256,1314.091256,1314.091256,1314.091256,1314.091256,15769.09508
10330006,Little Missouri Spring (WS001),2002,Active,Pleasant View City Culinary Water,1033,41.33343532,-111.9965569,Spring,Withdrawal,Water Supplier,kgallons,1296.090006,1425.699007,1425.699007,1425.699007,1296.090006,1296.090006,1183.082158,1183.082158,1183.082158,1200.083339,1100.076394,1100.076394,15114.84964
10330006,Little Missouri Spring (WS001),2003,Active,Pleasant View City Culinary Water,1033,41.33343532,-111.9965569,Spring,Withdrawal,Water Supplier,kgallons,1314.091256,1314.091256,1314.091256,1314.091256,1314.091256,1314.091256,1314.091256,1314.091256,1314.091256,1314.091256,1314.091256,1314.091256,15769.09508
10330006,Little Missouri Spring (WS001),2004,Active,Pleasant View City Culinary Water,1033,41.33343532,-111.9965569,Spring,Withdrawal,Water Supplier,kgallons,,,,,,,,,,,,,15769.09508
10330006,Little Missouri Spring (WS001),2005,Active,Pleasant View City Culinary Water,1033,41.33343532,-111.9965569,Spring,Withdrawal,Water Supplier,kgallons,1314.091256,1314.091256,1314.091256,1314.091256,1314.091256,1314.091256,1314.091256,1314.091256,1314.091256,1314.091256,1314.091256,1314.091256,15769.09508
10330006,Little Missouri Spring (WS001),2006,Active,Pleasant View City Culinary Water,1033,41.33343532,-111.9965569,Spring,Withdrawal,Water Supplier,kgallons,892.8,806.4,892.8,864,892.8,864,892.8,892.8,864,892.8,864,892.8,10512
10330006,Little Missouri Spring (WS001),2017,Active,Pleasant View City Culinary Water,1033,41.33343532,-111.9965569,Spring,Withdrawal,Water Supplier,kgallons,0,0,0,0,0,0,3576.96,3705.12,3196.8,3303.36,3196.8,3303.36,20282.4
10330006,Little Missouri Spring (WS001),2018,Active,Pleasant View City Culinary Water,1033,41.33343532,-111.9965569,Spring,Withdrawal,Water Supplier,kgallons,3241.2,3241.2,3241.2,3241.2,3241.2,3241.2,3241.2,3241.2,3241.2,3241.2,3241.2,3241.2,38894.4
10330006,Little Missouri Spring (WS001),2019,Active,Pleasant View City Culinary Water,1033,41.33343532,-111.9965569,Spring,Withdrawal,Water Supplier,kgallons,4410.3,4296.7,7697.7,3794.5,11154.4,3702.9,10631,6804.9,6651.4,7084.7,6400,6200,78828.5
108541070,Jessie Creek Well (WS007),,Active,Pleasant View City Culinary Water,1033,41.35222196,-111.9900236,Well,Withdrawal,Water Supplier,,,,,,,,,,,,,,
108543607,Well #4 (WS008),,Active,Pleasant View City Culinary Water,1033,41.34283754,-111.9808328,Well,Withdrawal,Water Supplier,,,,,,,,,,,,,,
10340001,Lower  Springs (WS001),2015,Active,"Fremont Water Works Company, Inc.",1034,38.50308664,-111.5552415,Spring,Withdrawal,Water Supplier,kgallons,,,,,,,137707.2,,,,,,137707.2
10340001,Lower  Springs (WS001),2016,Active,"Fremont Water Works Company, Inc.",1034,38.50308664,-111.5552415,Spring,Withdrawal,Water Supplier,kgallons,4450,4450,4450,4550,4550,4550,4550,4550,4550,4550,4550,4550,54300
10340001,Lower  Springs (WS001),2017,Active,"Fremont Water Works Company, Inc.",1034,38.50308664,-111.5552415,Spring,Withdrawal,Water Supplier,kgallons,4380,4380,4380,4380,4380,4380,4380,4380,4380,4380,4380,4380,52560
10340001,Lower  Springs (WS001),2018,Active,"Fremont Water Works Company, Inc.",1034,38.50308664,-111.5552415,Spring,Withdrawal,Water Supplier,kgallons,4500,4500,4500,4500,4500,4500,4500,4500,4500,4500,4500,4500,54000
10340001,Lower  Springs (WS001),2019,Active,"Fremont Water Works Company, Inc.",1034,38.50308664,-111.5552415,Spring,Withdrawal,Water Supplier,kgallons,4320,4000,4460,4320,4460,4320,4460,4460,4320,4460,4320,4460,52360
108544949,Upper Spring (WS002),2016,Active,"Fremont Water Works Company, Inc.",1034,38.50352547,-111.554023,Spring,Withdrawal,Water Supplier,kgallons,3710,3710,3710,3710,3710,3710,3710,3710,3710,3710,3710,3710,44520
108544949,Upper Spring (WS002),2017,Active,"Fremont Water Works Company, Inc.",1034,38.50352547,-111.554023,Spring,Withdrawal,Water Supplier,kgallons,3560,3560,3560,3560,3660,3560,3560,3560,3560,3560,3560,3560,42820
108544949,Upper Spring (WS002),2018,Active,"Fremont Water Works Company, Inc.",1034,38.50352547,-111.554023,Spring,Withdrawal,Water Supplier,kgallons,3800,3800,3800,3800,3800,3800,3800,3800,3800,3800,3800,3800,45600
108544949,Upper Spring (WS002),2019,Active,"Fremont Water Works Company, Inc.",1034,38.50352547,-111.554023,Spring,Withdrawal,Water Supplier,kgallons,7200,6500,7200,7000,7200,7000,7200,7200,7000,7200,7000,7200,84900
10350001,Water Canyon Springs Group (SS947),,Active,Salem City Corporation (Culinary),1035,40.03912281,-111.6339592,Spring,Withdrawal,Water Supplier,,,,,,,,,,,,,,
10350002,Storage Reservoir Well (WS003),,Active,Salem City Corporation (Culinary),1035,40.04173124,-111.6495202,Well,Withdrawal,Water Supplier,,,,,,,,,,,,,,
10350004,City Park Well,,Inactive,Salem City Corporation (Culinary),1035,,,Well,Withdrawal,Irrigation,,,,,,,,,,,,,,
10350005,Well,,Inactive,Salem City Corporation (Culinary),1035,,,Well,Withdrawal,Water Supplier,,,,,,,,,,,,,,
10350006,Maple Canyon Well  (WS005),,Active,Salem City Corporation (Culinary),1035,40.01481998,-111.6352099,Well,Withdrawal,Water Supplier,,,,,,,,,,,,,,
10350008,New Well,,Inactive,Salem City Corporation (Culinary),1035,40.01480622,-111.6352953,Well,Withdrawal,Domestic,,,,,,,,,,,,,,
10360001,Blue Rock Well (WS001),1996,Inactive,Eureka City Corporation (Culinary),1036,,,Well,Withdrawal,Water Supplier,kgallons,375.2667977,341.5444334,375.2667977,364.0249234,375.2667977,364.0249234,375.2667977,375.2667977,364.0249234,375.2667977,364.0249234,375.2667977,4424.511711
10360001,Blue Rock Well (WS001),1997,Inactive,Eureka City Corporation (Culinary),1036,,,Well,Withdrawal,Water Supplier,kgallons,477.2745874,443.5522231,477.2745874,466.0327131,477.2745874,466.0327131,477.2745874,477.2745874,466.0327131,477.2745874,466.0327131,477.2745874,5648.605188
10360001,Blue Rock Well (WS001),1998,Inactive,Eureka City Corporation (Culinary),1036,,,Well,Withdrawal,Water Supplier,kgallons,498.8752786,465.1529143,498.8752786,487.6334043,498.8752786,487.6334043,498.8752786,498.8752786,487.6334043,498.8752786,487.6334043,498.8752786,5907.813482
10360001,Blue Rock Well (WS001),,Inactive,Eureka City Corporation (Culinary),1036,,,Well,Withdrawal,Water Supplier,,,,,,,,,,,,,,
10360002,Dolinar Well,1996,Inactive,Eureka City Corporation (Culinary),1036,,,Well,Withdrawal,Water Supplier,kgallons,375.2667977,341.5444334,375.2667977,364.0249234,375.2667977,364.0249234,375.2667977,375.2667977,364.0249234,375.2667977,364.0249234,375.2667977,4424.511711
10360002,Dolinar Well,1997,Inactive,Eureka City Corporation (Culinary),1036,,,Well,Withdrawal,Water Supplier,kgallons,477.2745874,443.5522231,477.2745874,466.0327131,477.2745874,466.0327131,477.2745874,477.2745874,466.0327131,477.2745874,466.0327131,477.2745874,5648.605188
10360002,Dolinar Well,1998,Inactive,Eureka City Corporation (Culinary),1036,,,Well,Withdrawal,Water Supplier,kgallons,498.8752786,465.1529143,498.8752786,487.6334043,498.8752786,487.6334043,498.8752786,498.8752786,487.6334043,498.8752786,487.6334043,498.8752786,5907.813482
10360002,Dolinar Well,1999,Inactive,Eureka City Corporation (Culinary),1036,,,Well,Withdrawal,Water Supplier,kgallons,498.9762926,465.1529143,498.8752786,487.6334043,498.8752786,487.6334043,498.8752786,498.8752786,487.6334043,498.8752786,487.6334043,498.8752786,5907.914496
10360002,Dolinar Well,,Inactive,Eureka City Corporation (Culinary),1036,,,Well,Withdrawal,Water Supplier,,,,,,,,,,,,,,
10360003,Eureka Hill Well (WS002),1996,Inactive,Eureka City Corporation (Culinary),1036,,,Well,Withdrawal,Water Supplier,kgallons,375.2667977,341.5444334,375.2667977,364.0249234,375.2667977,364.0249234,375.2667977,375.2667977,364.0249234,375.2667977,364.0249234,375.2667977,4424.511711
10360003,Eureka Hill Well (WS002),1997,Inactive,Eureka City Corporation (Culinary),1036,,,Well,Withdrawal,Water Supplier,kgallons,477.2745874,443.5522231,477.2745874,466.0327131,477.2745874,466.0327131,477.2745874,477.2745874,466.0327131,477.2745874,466.0327131,477.2745874,5648.605188
10360003,Eureka Hill Well (WS002),1998,Inactive,Eureka City Corporation (Culinary),1036,,,Well,Withdrawal,Water Supplier,kgallons,498.8752786,465.1529143,498.8752786,487.6334043,498.8752786,487.6334043,498.8752786,498.8752786,487.6334043,498.8752786,487.6334043,498.8752786,5907.813482
10360003,Eureka Hill Well (WS002),1999,Inactive,Eureka City Corporation (Culinary),1036,,,Well,Withdrawal,Water Supplier,kgallons,498.8752786,465.1529143,498.8752786,487.6334043,498.8752786,487.6334043,498.8752786,498.8752786,487.6334043,498.8752786,487.0338377,498.8752786,5907.213915
10360003,Eureka Hill Well (WS002),,Inactive,Eureka City Corporation (Culinary),1036,,,Well,Withdrawal,Water Supplier,,,,,,,,,,,,,,
10360004,Homansville Group  (SS161),1996,Active,Eureka City Corporation (Culinary),1036,39.95975488,-112.1018406,Well,Withdrawal,Water Supplier,kgallons,375.2667977,341.5444334,375.2667977,364.0249234,375.2667977,364.0249234,375.2667977,375.2667977,364.0249234,375.2667977,364.0249234,375.2667977,4424.511711
10360004,Homansville Group  (SS161),1997,Active,Eureka City Corporation (Culinary),1036,39.95975488,-112.1018406,Well,Withdrawal,Water Supplier,kgallons,477.2745874,443.5522231,477.2745874,466.0327131,477.2745874,466.0327131,477.2745874,477.2745874,466.0327131,477.2745874,466.0327131,477.2745874,5648.605188
10360004,Homansville Group  (SS161),1998,Active,Eureka City Corporation (Culinary),1036,39.95975488,-112.1018406,Well,Withdrawal,Water Supplier,kgallons,498.8752786,465.1529143,498.8752786,487.6334043,498.8752786,487.6334043,498.8752786,498.8752786,487.6334043,498.8752786,487.6334043,498.8752786,5907.813482
10360004,Homansville Group  (SS161),1999,Active,Eureka City Corporation (Culinary),1036,39.95975488,-112.1018406,Well,Withdrawal,Water Supplier,kgallons,498.8752786,465.1529143,498.8752786,487.6334043,498.8752786,487.6334043,498.8752786,498.8752786,487.6334043,498.8752786,487.6334043,498.8752786,5907.813482
10360004,Homansville Group  (SS161),,Active,Eureka City Corporation (Culinary),1036,39.95975488,-112.1018406,Well,Withdrawal,Water Supplier,,,,,,,,,,,,,,
10360005,Eagle Well (WS005),1996,Inactive,Eureka City Corporation (Culinary),1036,,,Well,Withdrawal,Water Supplier,kgallons,375.2667977,341.5444334,375.2667977,364.0249234,375.2667977,364.0249234,375.2667977,375.2667977,364.0249234,375.2667977,364.0249234,375.2667977,4424.511711
10360005,Eagle Well (WS005),1997,Inactive,Eureka City Corporation (Culinary),1036,,,Well,Withdrawal,Water Supplier,kgallons,477.2745874,443.5522231,477.2745874,466.0327131,477.2745874,466.0327131,477.2745874,477.2745874,466.0327131,477.2745874,466.0327131,477.2745874,5648.605188
10360005,Eagle Well (WS005),1998,Inactive,Eureka City Corporation (Culinary),1036,,,Well,Withdrawal,Water Supplier,kgallons,498.8752786,465.1529143,498.8752786,487.6334043,498.8752786,487.6334043,498.8752786,498.8752786,487.6334043,498.8752786,487.6334043,498.8752786,5907.813482
10360005,Eagle Well (WS005),1999,Inactive,Eureka City Corporation (Culinary),1036,,,Well,Withdrawal,Water Supplier,kgallons,498.8752786,465.1529143,498.8752786,487.6334043,498.8752786,487.6334043,498.8752786,498.8752786,487.6334043,498.8752786,487.6334043,498.8752786,5907.813482
10360005,Eagle Well (WS005),,Inactive,Eureka City Corporation (Culinary),1036,,,Well,Withdrawal,Water Supplier,,,,,,,,,,,,,,
108543330,Red Brick Well Irrigation,,Inactive,Eureka City Corporation (Culinary),1036,39.92442172,-112.1592098,Well,Withdrawal,Irrigation,,,,,,,,,,,,,,
108543331,"Well (8-in, 100-ft deep)",,Inactive,Eureka City Corporation (Culinary),1036,39.96170465,-112.109949,Well,Withdrawal,Water Supplier,,,,,,,,,,,,,,
108543332,"Well (6-in, 377-ft deep)",,Inactive,Eureka City Corporation (Culinary),1036,39.9587659,-112.1091307,Well,Withdrawal,Water Supplier,,,,,,,,,,,,,,
108543333,"Well (6-in, 350-ft deep)",,Inactive,Eureka City Corporation (Culinary),1036,39.95924785,-112.1075505,Well,Withdrawal,Water Supplier,,,,,,,,,,,,,,
108543334,TinTic Junction  Well 2 (WS008),2017,Active,Eureka City Corporation (Culinary),1036,39.92430707,-112.1651321,Well,Withdrawal,Water Supplier,kgallons,3212,3300,3486,3507,3540,3598,3606,3622,3595,3431,3305,3201,41403
108543334,TinTic Junction  Well 2 (WS008),,Active,Eureka City Corporation (Culinary),1036,39.92430707,-112.1651321,Well,Withdrawal,Water Supplier,,,,,,,,,,,,,,
108543335,"Well (8-in, 85-ft deep)",,Inactive,Eureka City Corporation (Culinary),1036,39.96149977,-112.10983,Well,Withdrawal,Water Supplier,,,,,,,,,,,,,,
108543336,Vulcan Well (WS003),,Active,Eureka City Corporation (Culinary),1036,39.96918527,-112.0874012,Well,Withdrawal,Water Supplier,,,,,,,,,,,,,,
108544176,TinTic Junction Well 3 (WS009),,Active,Eureka City Corporation (Culinary),1036,39.92446814,-112.1593769,Well,Withdrawal,Water Supplier,,,,,,,,,,,,,,
108544177,Eureka Transfer Station,,Active,Eureka City Corporation (Culinary),1036,39.95165024,-112.1250726,Well,Transfer Out,Water Supplier,,,,,,,,,,,,,,
10370001,Lower Well (WS001),,Active,River Heights City Water System,1037,41.72463522,-111.8258788,Well,Withdrawal,Water Supplier,,,,,,,,,,,,,,
10370002,Upper Well (WS002),,Active,River Heights City Water System,1037,41.72566544,-111.8200286,Well,Withdrawal,Water Supplier,,,,,,,,,,,,,,
10370003,Bought from Providence City,,Inactive,River Heights City Water System,1037,,,Drain,Transfer In,Water Supplier,,,,,,,,,,,,,,
10370004,Municipal Well (WS004),,Active,River Heights City Water System,1037,41.72310515,-111.818818,Well,Withdrawal,Water Supplier,,,,,,,,,,,,,,
10370005,Bought from Providence-Logan Irr. Co,2000,Inactive,River Heights City Water System,1037,,,Stream,Transfer In,Irrigation,kgallons,0,0,0,0,82114.56,100036.3886,103294.9029,100688.0914,38450.46857,0,0,0,424584.4114
10370005,Bought from Providence-Logan Irr. Co,2001,Inactive,River Heights City Water System,1037,,,Stream,Transfer In,Irrigation,kgallons,0,0,0,0,87654.03429,106227.5657,101991.4971,91890.10286,72664.86857,17270.12571,0,0,477698.1943
10370005,Bought from Providence-Logan Irr. Co,2005,Inactive,River Heights City Water System,1037,,,Stream,Transfer In,Irrigation,kgallons,,,,,28674.92571,32259.29143,25742.26286,24113.00571,18573.53143,977.5542857,,,130340.5714
10370005,Bought from Providence-Logan Irr. Co,,Inactive,River Heights City Water System,1037,,,Stream,Transfer In,Irrigation,,,,,,,,,,,,,,
10380001,Main Spring (WS004),,Active,West Corinne Water Company,1038,41.57780742,-112.0163303,Spring,Withdrawal,Water Supplier,,,,,,,,,,,,,,
10380004,Anderson Well (WS007),,Active,West Corinne Water Company,1038,41.71764174,-112.2992933,Well,Withdrawal,Water Supplier,,,,,,,,,,,,,,
108542538,Surface Source #1 (Chg. a37333),,Inactive,West Corinne Water Company,1038,41.5758624,-112.0228844,Stream,Withdrawal,Water Supplier,,,,,,,,,,,,,,
108542539,Surface Source #2 (Chg. a37333),,Inactive,West Corinne Water Company,1038,41.57685399,-112.0194266,Stream,Withdrawal,Water Supplier,,,,,,,,,,,,,,
108542540,Surface Source #3 (Chg. a37333),,Inactive,West Corinne Water Company,1038,41.57704874,-112.0191372,Stream,Withdrawal,Water Supplier,,,,,,,,,,,,,,
108542541,Surface Source #4 (Chg. a37333),,Inactive,West Corinne Water Company,1038,41.57746923,-112.0181566,Stream,Withdrawal,Water Supplier,,,,,,,,,,,,,,
108542542,Spring #1 (heretofore of Chg. a37333),,Inactive,West Corinne Water Company,1038,41.57820853,-112.0145433,Spring,Withdrawal,Water Supplier,,,,,,,,,,,,,,
108542543,Spring #2 (heretofore of Chg. a37333),,Inactive,West Corinne Water Company,1038,41.57660624,-112.0200135,Spring,Withdrawal,Water Supplier,,,,,,,,,,,,,,
108542544,Spring #3 (heretofore of Chg. a37333),,Inactive,West Corinne Water Company,1038,41.57766524,-112.0169955,Spring,Withdrawal,Water Supplier,,,,,,,,,,,,,,
108542545,Spring #4 (heretofore of Chg. a37333),,Inactive,West Corinne Water Company,1038,41.57816864,-112.0143965,Spring,Withdrawal,Water Supplier,,,,,,,,,,,,,,
108542546,Spring #5 (heretofore of Chg. a37333),,Inactive,West Corinne Water Company,1038,41.57820267,-112.0142727,Spring,Withdrawal,Water Supplier,,,,,,,,,,,,,,
108542547,Spring #6 (heretofore of Chg. a37333),,Inactive,West Corinne Water Company,1038,41.57822748,-112.0145729,Spring,Withdrawal,Water Supplier,,,,,,,,,,,,,,
108542924,"Well (10 inches, 360` deep)",,Inactive,West Corinne Water Company,1038,41.70902398,-112.3022301,Well,Withdrawal,Water Supplier,,,,,,,,,,,,,,
108542925,"Well #2 (16 inches, 500` deep)",,Inactive,West Corinne Water Company,1038,41.71764174,-112.2992933,Well,Withdrawal,Water Supplier,,,,,,,,,,,,,,
108545108,Lowest Spring (WS001),,Active,West Corinne Water Company,1038,,,Spring,Withdrawal,Sewage Treatment,,,,,,,,,,,,,,
108545109,Second Lowest Spring (WS002),,Active,West Corinne Water Company,1038,,,Spring,Withdrawal,Water Supplier,,,,,,,,,,,,,,
108545110,Third Lowest Spring (WS003),,Active,West Corinne Water Company,1038,,,Spring,Withdrawal,Water Supplier,,,,,,,,,,,,,,
10390001,All Springs,,Inactive,North Emery Water Users Special Service District,1039,,,Spring,Withdrawal,Water Supplier,,,,,,,,,,,,,,
10390002,Rilda Upper Spring (WS001),2013,Active,North Emery Water Users Special Service District,1039,39.40372625,-111.1592729,Spring,Withdrawal,Water Supplier,kgallons,3454.025143,3454.025143,3454.025143,4301.238857,5181.037714,5604.644571,6028.251429,6028.251429,6028.251429,4301.238857,4268.653714,4268.653714,56372.29714
10390002,Rilda Upper Spring (WS001),2017,Active,North Emery Water Users Special Service District,1039,39.40372625,-111.1592729,Spring,Withdrawal,Water Supplier,kgallons,2150.619429,2150.619429,2574.226286,3225.929143,3258.514286,5181.037714,7755.264,5181.037714,3877.632,2997.833143,2150.619429,2150.619429,42653.952
10390002,Rilda Upper Spring (WS001),2018,Active,North Emery Water Users Special Service District,1039,39.40372625,-111.1592729,Spring,Withdrawal,Water Supplier,kgallons,2150.619429,2150.619429,2574.226286,3225.929143,3258.514286,5181.037714,7755.264,5181.037714,3877.632,2997.833143,2150.619429,2150.619429,42653.952
10390002,Rilda Upper Spring (WS001),2019,Active,North Emery Water Users Special Service District,1039,39.40372625,-111.1592729,Spring,Withdrawal,Water Supplier,kgallons,1303.405714,1303.405714,1303.405714,1629.257143,0,0,0,0,0,0,0,0,5539.474286
10390003,Side Canyon Spring,,Inactive,North Emery Water Users Special Service District,1039,39.40313639,-111.1673345,Spring,Withdrawal,Water Supplier,,,,,,,,,,,,,,
10390004,Main Canyon Springs (Group),2017,Active,North Emery Water Users Special Service District,1039,39.39808506,-111.1143226,Spring,Withdrawal,Water Supplier,kgallons,2671.981714,2997.833143,3225.929143,3258.514286,3584.365714,3584.365714,3584.365714,3584.365714,3584.365714,3584.365714,3584.365714,3584.365714,40829.184
10390004,Main Canyon Springs (Group),,Active,North Emery Water Users Special Service District,1039,39.39808506,-111.1143226,Spring,Withdrawal,Water Supplier,,,,,,,,,,,,,,
10390005,Middle Spring,,Inactive,North Emery Water Users Special Service District,1039,,,Spring,Withdrawal,Water Supplier,,,,,,,,,,,,,,
10390006,Main Canyon Lower,,Inactive,North Emery Water Users Special Service District,1039,39.40135855,-111.1146324,Spring,Withdrawal,Water Supplier,,,,,,,,,,,,,,
10390007,Birch Spring (WS007),2017,Active,North Emery Water Users Special Service District,1039,39.40565757,-111.1123698,Spring,Withdrawal,Water Supplier,kgallons,1010.139429,944.9691429,814.6285714,847.2137143,651.7028571,651.7028571,651.7028571,651.7028571,651.7028571,651.7028571,651.7028571,651.7028571,8830.573714
10390007,Birch Spring (WS007),,Active,North Emery Water Users Special Service District,1039,39.40565757,-111.1123698,Spring,Withdrawal,Water Supplier,,,,,,,,,,,,,,
108540221,UP&L Backup Well,,Inactive,North Emery Water Users Special Service District,1039,,,Well,Withdrawal,Domestic,,,,,,,,,,,,,,
108542330,Elk Springs Group (WS010) (WS011),2019,Active,North Emery Water Users Special Service District,1039,39.36934457,-111.1633391,Spring,Withdrawal,Water Supplier,kgallons,1303.405714,1303.405714,1303.405714,1727.012571,6191.177143,26784.98743,37896.52114,16683.59314,12968.88686,6679.954286,4007.972571,4007.972571,120858.2949
108542331,Spring 89-61,,Inactive,North Emery Water Users Special Service District,1039,,,Spring,Withdrawal,Water Supplier,,,,,,,,,,,,,,
108545293,Big Bend Spring,,Active,North Emery Water Users Special Service District,1039,39.40756964,-111.1187203,Spring,Withdrawal,Water Supplier,,,,,,,,,,,,,,
10400001,Central Utah WTP (WS001),,Active,Vernal Municipal Water System,1040,,,Spring,Withdrawal,Water Supplier,,,,,,,,,,,,,,
10400003,Purchased from Uintah WCD (Redfleet Res),,Inactive,Vernal Municipal Water System,1040,,,Spring,Transfer In,Water Supplier,,,,,,,,,,,,,,
10400004,Soderquist Wash Stream,,Inactive,Vernal Municipal Water System,1040,,,Stream,Withdrawal,Water Supplier,,,,,,,,,,,,,,
10400005,Trout & Ashley Creek,,Inactive,Vernal Municipal Water System,1040,,,Stream,Withdrawal,Water Supplier,,,,,,,,,,,,,,
10410001,Sunset City Well,,Inactive,Sunset Municipal Water System,1041,41.13922251,-112.0272969,Well,Withdrawal,Water Supplier,,,,,,,,,,,,,,
10410003,Martin Spring,,Inactive,Sunset Municipal Water System,1041,,,Spring,Withdrawal,Water Supplier,,,,,,,,,,,,,,
10420001,Sunridge Spring No.2,1996,Inactive,Sunridge Subdivision Water,1042,41.36416135,-111.6622339,Spring,Withdrawal,Water Supplier,kgallons,0,0,0,0,0,0,0,0,0,0,0,0,22.00148846
10420001,Sunridge Spring No.2,1997,Inactive,Sunridge Subdivision Water,1042,41.36416135,-111.6622339,Spring,Withdrawal,Water Supplier,kgallons,0,0,0,0,0,0,0,0,0,0,0,0,25.00258011
10420001,Sunridge Spring No.2,1998,Inactive,Sunridge Subdivision Water,1042,41.36416135,-111.6622339,Spring,Withdrawal,Water Supplier,kgallons,0,0,0,0,0,0,0,0,0,0,0,0,25.00258011
10420001,Sunridge Spring No.2,1999,Inactive,Sunridge Subdivision Water,1042,41.36416135,-111.6622339,Spring,Withdrawal,Water Supplier,kgallons,0,0,0,0,0,0,0,0,0,0,0,0,50.00190171
10420001,Sunridge Spring No.2,2000,Inactive,Sunridge Subdivision Water,1042,41.36416135,-111.6622339,Spring,Withdrawal,Water Supplier,kgallons,0,0,0,0,0,0,0,0,0,0,0,0,50.00190171
10420001,Sunridge Spring No.2,2001,Inactive,Sunridge Subdivision Water,1042,41.36416135,-111.6622339,Spring,Withdrawal,Water Supplier,kgallons,,,,,,,,,,,,,50.00347245
10420001,Sunridge Spring No.2,2002,Inactive,Sunridge Subdivision Water,1042,41.36416135,-111.6622339,Spring,Withdrawal,Water Supplier,kgallons,,,,,5.00E-03,8.50E-03,8.50E-03,8.50E-03,8.50E-03,5.60E-03,5.50E-03,,5.01E-02
10420001,Sunridge Spring No.2,,Inactive,Sunridge Subdivision Water,1042,41.36416135,-111.6622339,Spring,Withdrawal,Water Supplier,,,,,,,,,,,,,,
10420002,Undeveloped Spring,1996,Inactive,Sunridge Subdivision Water,1042,,,Spring,Withdrawal,Water Supplier,kgallons,0,0,0,0,0,0,0,0,0,0,0,0,44.00297691
10420002,Undeveloped Spring,1997,Inactive,Sunridge Subdivision Water,1042,,,Spring,Withdrawal,Water Supplier,kgallons,0,0,0,0,0,0,0,0,0,0,0,0,50.00190171
10420002,Undeveloped Spring,1998,Inactive,Sunridge Subdivision Water,1042,,,Spring,Withdrawal,Water Supplier,kgallons,0,0,0,0,0,0,0,0,0,0,0,0,50.00190171
10420002,Undeveloped Spring,1999,Inactive,Sunridge Subdivision Water,1042,,,Spring,Withdrawal,Water Supplier,kgallons,0,0,0,0,0,0,0,0,0,0,0,0,75.00448183
10420002,Undeveloped Spring,2000,Inactive,Sunridge Subdivision Water,1042,,,Spring,Withdrawal,Water Supplier,kgallons,0,0,0,0,0,0,0,0,0,0,0,0,75.00448183
10420002,Undeveloped Spring,2001,Inactive,Sunridge Subdivision Water,1042,,,Spring,Withdrawal,Water Supplier,kgallons,,,,,,,,,,,,,75.00520867
10420002,Undeveloped Spring,2002,Inactive,Sunridge Subdivision Water,1042,,,Spring,Withdrawal,Water Supplier,kgallons,,,,,8.000555571,12.50086811,12.50086811,12.50086811,12.50086811,9.000625017,8.000555571,,75.00520867
10420002,Undeveloped Spring,,Inactive,Sunridge Subdivision Water,1042,,,Spring,Withdrawal,Water Supplier,,,,,,,,,,,,,,
10420003,Sunridge System 3 Spring (WS001),1996,Active,Sunridge Subdivision Water,1042,,,Spring,Withdrawal,Water Supplier,kgallons,0,0,0,0,0,0,0,0,0,0,0,0,7.501099886
10420003,Sunridge System 3 Spring (WS001),1997,Active,Sunridge Subdivision Water,1042,,,Spring,Withdrawal,Water Supplier,kgallons,0,0,0,0,0,0,0,0,0,0,0,0,7.501099886
10420003,Sunridge System 3 Spring (WS001),1998,Active,Sunridge Subdivision Water,1042,,,Spring,Withdrawal,Water Supplier,kgallons,0,0,0,0,0,0,0,0,0,0,0,0,7.501099886
10420003,Sunridge System 3 Spring (WS001),1999,Active,Sunridge Subdivision Water,1042,,,Spring,Withdrawal,Water Supplier,kgallons,0,0,0,0,0,0,0,0,0,0,0,0,30.00114103
10420003,Sunridge System 3 Spring (WS001),2000,Active,Sunridge Subdivision Water,1042,,,Spring,Withdrawal,Water Supplier,kgallons,0,0,0,0,0,0,0,0,0,0,0,0,30.00114103
10420003,Sunridge System 3 Spring (WS001),2001,Active,Sunridge Subdivision Water,1042,,,Spring,Withdrawal,Water Supplier,kgallons,,,,,,,,,,,,,30.00208346
10420003,Sunridge System 3 Spring (WS001),2002,Active,Sunridge Subdivision Water,1042,,,Spring,Withdrawal,Water Supplier,kgallons,,,,,3.000208339,5.000347232,5.000347232,5.000347232,5.000347232,4.000277785,3.000208339,,30.00208339
10420003,Sunridge System 3 Spring (WS001),2009,Active,Sunridge Subdivision Water,1042,,,Spring,Withdrawal,Water Supplier,kgallons,0,0,0,2.6,2.6,2.6,2.6,2.6,2.6,2.6,0,0,18.2
10420003,Sunridge System 3 Spring (WS001),,Active,Sunridge Subdivision Water,1042,,,Spring,Withdrawal,Water Supplier,,,,,,,,,,,,,,
10420004,Sunridge System 4 Spring (WS004),1996,Active,Sunridge Subdivision Water,1042,41.38324533,-111.692016,Spring,Withdrawal,Water Supplier,kgallons,0,0,0,0,0,0,0,0,0,0,0,0,3.001091657
10420004,Sunridge System 4 Spring (WS004),1997,Active,Sunridge Subdivision Water,1042,41.38324533,-111.692016,Spring,Withdrawal,Water Supplier,kgallons,0,0,0,0,0,0,0,0,0,0,0,0,25.00258011
10420004,Sunridge System 4 Spring (WS004),1998,Active,Sunridge Subdivision Water,1042,41.38324533,-111.692016,Spring,Withdrawal,Water Supplier,kgallons,0,0,0,0,0,0,0,0,0,0,0,0,25.00258011
10420004,Sunridge System 4 Spring (WS004),1999,Active,Sunridge Subdivision Water,1042,41.38324533,-111.692016,Spring,Withdrawal,Water Supplier,kgallons,0,0,0,0,0,0,0,0,0,0,0,0,40.00152137
10420004,Sunridge System 4 Spring (WS004),2000,Active,Sunridge Subdivision Water,1042,41.38324533,-111.692016,Spring,Withdrawal,Water Supplier,kgallons,0,0,0,0,0,0,0,0,0,0,0,0,40.00152137
10420004,Sunridge System 4 Spring (WS004),2001,Active,Sunridge Subdivision Water,1042,41.38324533,-111.692016,Spring,Withdrawal,Water Supplier,kgallons,,,,,,,,,,,,,40.00277795
10420004,Sunridge System 4 Spring (WS004),2002,Active,Sunridge Subdivision Water,1042,41.38324533,-111.692016,Spring,Withdrawal,Water Supplier,kgallons,,,,,4.50E-03,6.50E-03,6.50E-03,6.50E-03,6.50E-03,5.00E-03,4.50E-03,,4.00E-02
10420004,Sunridge System 4 Spring (WS004),2009,Active,Sunridge Subdivision Water,1042,41.38324533,-111.692016,Spring,Withdrawal,Water Supplier,kgallons,0,0,0,130,130,130,130,130,130,130,0,0,910
10420004,Sunridge System 4 Spring (WS004),,Active,Sunridge Subdivision Water,1042,41.38324533,-111.692016,Spring,Withdrawal,Water Supplier,,,,,,,,,,,,,,
108542135,System 1 Spring (WS002),,Inactive,Sunridge Subdivision Water,1042,,,Spring,Withdrawal,Water Supplier,,,,,,,,,,,,,,
108542136,System 2 Spring (WS003),,Inactive,Sunridge Subdivision Water,1042,,,Spring,Withdrawal,Water Supplier,,,,,,,,,,,,,,
108542899,Cat Trail Upper Spring (WS006),,Active,Sunridge Subdivision Water,1042,,,Spring,Withdrawal,Water Supplier,,,,,,,,,,,,,,
108544000,Cat Trail Lower Spring (WS007),,Active,Sunridge Subdivision Water,1042,,,Spring,Withdrawal,Domestic,,,,,,,,,,,,,,
10430001,Spring Area-Jans Canyon,,Inactive,Twin City Water Works,1043,,,Spring,Withdrawal,Water Supplier,,,,,,,,,,,,,,
10430002,Spring Area-Maxwell Cyn.,,Inactive,Twin City Water Works,1043,,,Spring,Withdrawal,Water Supplier,,,,,,,,,,,,,,
10430003,Spring Area-Jans Canyon,,Inactive,Twin City Water Works,1043,,,Spring,Withdrawal,Water Supplier,,,,,,,,,,,,,,
108541469,Power Plant Wells,,Active,Twin City Water Works,1043,37.00492611,-113.0049307,Well,Withdrawal,Water Supplier,,,,,,,,,,,,,,
108541988,Maxwell Spring A,,Active,Twin City Water Works,1043,37.03047466,-112.9765277,Spring,Withdrawal,Water Supplier,,,,,,,,,,,,,,
108541989,Maxwell Spring E,,Inactive,Twin City Water Works,1043,37.0297917,-112.9748139,Spring,Withdrawal,Water Supplier,,,,,,,,,,,,,,
108541990,Maxwell Spring B,,Inactive,Twin City Water Works,1043,37.03046069,-112.9760476,Spring,Withdrawal,Water Supplier,,,,,,,,,,,,,,
108541991,Maxwell Spring C,,Inactive,Twin City Water Works,1043,37.03115359,-112.9750205,Spring,Withdrawal,Water Supplier,,,,,,,,,,,,,,
108541992,Jan`s Spring,,Inactive,Twin City Water Works,1043,37.0293034,-112.9844842,Spring,Withdrawal,Water Supplier,,,,,,,,,,,,,,
108541993,Maxwell Spring D,,Inactive,Twin City Water Works,1043,37.02993741,-112.9721656,Spring,Withdrawal,Water Supplier,,,,,,,,,,,,,,
108544014,Sold to Hildale Town,,Active,Twin City Water Works,1043,37.00281632,-113.0049301,Stream,Transfer Out,Water Supplier,,,,,,,,,,,,,,
108544247,Maxwell Irrigation (Park),,Active,Twin City Water Works,1043,37.02108467,-112.9718414,Well,Withdrawal,Irrigation,,,,,,,,,,,,,,
10450001,Mt. Carmel Springs,,Active,Mt. Carmel Special Service District,1045,,,Spring,Withdrawal,Water Supplier,,,,,,,,,,,,,,
10450002,"Well (12"")",,Active,Mt. Carmel Special Service District,1045,,,Well,Withdrawal,Water Supplier,,,,,,,,,,,,,,
10460001,Schumaker Well No. 1 (14`),,Inactive,Grand County Water Conservancy District (Culinary),1046,38.56231115,-109.5154861,Well,Withdrawal,Irrigation,,,,,,,,,,,,,,
10460002,George White Well No. 4 (WS002),,Active,Grand County Water Conservancy District (Culinary),1046,38.52067847,-109.470476,Well,Withdrawal,Water Supplier,,,,,,,,,,,,,,
10460003,Schumaker Well No. 3  Upper,,Inactive,Grand County Water Conservancy District (Culinary),1046,38.56106303,-109.5211898,Well,Withdrawal,Irrigation,,,,,,,,,,,,,,
10460004,Highland Well,,Inactive,Grand County Water Conservancy District (Culinary),1046,,,Well,Withdrawal,Water Supplier,,,,,,,,,,,,,,
10460005,"Millcreek, Via Sheley",,Inactive,Grand County Water Conservancy District (Culinary),1046,,,Stream,Withdrawal,Irrigation,,,,,,,,,,,,,,
10460006,Beeman Well (Moab),,Inactive,Grand County Water Conservancy District (Culinary),1046,,,Well,Withdrawal,Water Supplier,,,,,,,,,,,,,,
10460007,Corbin Well (Moab),,Inactive,Grand County Water Conservancy District (Culinary),1046,38.50892646,-109.4645118,Well,Withdrawal,Irrigation,,,,,,,,,,,,,,
10460008,Deloy Lance Well,,Inactive,Grand County Water Conservancy District (Culinary),1046,38.55795077,-109.5272667,Well,Withdrawal,Irrigation,,,,,,,,,,,,,,
10460009,Howard Lance Well (aka Will Petty),,Inactive,Grand County Water Conservancy District (Culinary),1046,38.55958728,-109.5283177,Well,Withdrawal,Irrigation,,,,,,,,,,,,,,
10460010,Cemetary Well,,Inactive,Grand County Water Conservancy District (Culinary),1046,38.56131135,-109.5291256,Well,Withdrawal,Irrigation,,,,,,,,,,,,,,
10460011,George White Well No. 5 (WS005),,Active,Grand County Water Conservancy District (Culinary),1046,38.52261318,-109.470977,Well,Withdrawal,Water Supplier,,,,,,,,,,,,,,
108540333,Chapman Well  (WS006),,Active,Grand County Water Conservancy District (Culinary),1046,38.51405986,-109.4653772,Well,Withdrawal,Water Supplier,,,,,,,,,,,,,,
108540334,Spanish Valley Well  (WS007),,Active,Grand County Water Conservancy District (Culinary),1046,38.50211851,-109.445724,Well,Withdrawal,Water Supplier,,,,,,,,,,,,,,
108540868,Beeman Well,,Inactive,Grand County Water Conservancy District (Culinary),1046,38.51230938,-109.4738516,Well,Withdrawal,Irrigation,,,,,,,,,,,,,,
108541357,Well,,Inactive,Grand County Water Conservancy District (Culinary),1046,38.56801231,-109.5581471,Well,Withdrawal,Water Supplier,,,,,,,,,,,,,,
108541358,Well,,Inactive,Grand County Water Conservancy District (Culinary),1046,38.56803896,-109.5591961,Well,Withdrawal,Water Supplier,,,,,,,,,,,,,,
108542384,Schumaker Well (Lower - Corrected),,Inactive,Grand County Water Conservancy District (Culinary),1046,38.56106357,-109.5212579,Well,Withdrawal,Irrigation,,,,,,,,,,,,,,
108543139,Andrea Well,,Inactive,Grand County Water Conservancy District (Culinary),1046,38.51553254,-109.4660416,Well,Withdrawal,Water Supplier,,,,,,,,,,,,,,
108545327,"Emergency Inter Connection, SJSVSSD",,Active,Grand County Water Conservancy District (Culinary),1046,38.50230093,-109.4567391,Well,Withdrawal,Water Supplier,,,,,,,,,,,,,,
10470001,Wylie Spring,1996,Inactive,Zion National Park (Zion Canyon Water System) Culinary,1047,37.24694707,-112.9530058,Spring,Withdrawal,Water Supplier,kgallons,760.0517157,690.0490533,760.0517157,740.050955,740.050955,740.050955,760.0517157,760.0517157,740.050955,760.0517157,740.050955,760.0517157,8950.620639
10470001,Wylie Spring,1997,Inactive,Zion National Park (Zion Canyon Water System) Culinary,1047,37.24694707,-112.9530058,Spring,Withdrawal,Water Supplier,kgallons,760.0517157,690.0490533,760.0517157,740.050955,740.050955,740.050955,760.0517157,760.0517157,740.050955,760.0517157,740.050955,760.0517157,8950.614122
10470001,Wylie Spring,1998,Inactive,Zion National Park (Zion Canyon Water System) Culinary,1047,37.24694707,-112.9530058,Spring,Withdrawal,Water Supplier,kgallons,760.0517157,690.0490533,760.0517157,740.050955,740.050955,740.050955,760.0517157,760.0517157,740.050955,760.0517157,740.050955,760.0517157,8950.614122
10470001,Wylie Spring,1999,Inactive,Zion National Park (Zion Canyon Water System) Culinary,1047,37.24694707,-112.9530058,Spring,Withdrawal,Water Supplier,kgallons,760.0517157,690.0490533,760.0517157,740.050955,740.050955,740.050955,760.0517157,760.0517157,740.050955,760.0517157,740.050955,760.0517157,8950.614122
10470001,Wylie Spring,2000,Inactive,Zion National Park (Zion Canyon Water System) Culinary,1047,37.24694707,-112.9530058,Spring,Withdrawal,Water Supplier,kgallons,760.0517157,690.0490533,760.0517157,740.050955,740.050955,740.050955,760.0517157,760.0517157,740.050955,760.0517157,740.050955,760.0517157,8950.614122
10470001,Wylie Spring,,Inactive,Zion National Park (Zion Canyon Water System) Culinary,1047,37.24694707,-112.9530058,Spring,Withdrawal,Water Supplier,,,,,,,,,,,,,,
10470002,Temple of Sinawava Spring,1996,Inactive,Zion National Park (Zion Canyon Water System) Culinary,1047,37.28633754,-112.9509146,Spring,Withdrawal,Water Supplier,kgallons,1740.121574,1570.108592,1740.121574,1680.116034,1680.116034,1680.116034,1740.121574,1740.121574,1680.116034,1740.121574,1680.116034,1740.121574,20411.41821
10470002,Temple of Sinawava Spring,1997,Inactive,Zion National Park (Zion Canyon Water System) Culinary,1047,37.28633754,-112.9509146,Spring,Withdrawal,Water Supplier,kgallons,1740.121574,1570.108592,1740.121574,1680.116034,1680.116034,1680.116034,1740.121574,1740.121574,1680.116034,1740.121574,1680.116034,1740.121574,20411.41821
10470002,Temple of Sinawava Spring,1998,Inactive,Zion National Park (Zion Canyon Water System) Culinary,1047,37.28633754,-112.9509146,Spring,Withdrawal,Water Supplier,kgallons,1740.121574,1570.108592,1740.121574,1680.116034,1680.116034,1680.116034,1740.121574,1740.121574,1680.116034,1740.121574,1680.116034,1740.121574,20411.41821
10470002,Temple of Sinawava Spring,1999,Inactive,Zion National Park (Zion Canyon Water System) Culinary,1047,37.28633754,-112.9509146,Spring,Withdrawal,Water Supplier,kgallons,1740.121574,1570.108592,1740.121574,1680.116034,1680.116034,1680.116034,1740.121574,1740.121574,1680.116034,1740.121574,1680.116034,1740.121574,20411.41821
10470002,Temple of Sinawava Spring,2000,Inactive,Zion National Park (Zion Canyon Water System) Culinary,1047,37.28633754,-112.9509146,Spring,Withdrawal,Water Supplier,kgallons,1740.121574,1570.108592,1740.121574,1680.116034,1680.116034,1680.116034,1740.121574,1740.121574,1680.116034,1740.121574,1680.116034,1740.121574,20411.41821
10470002,Temple of Sinawava Spring,,Inactive,Zion National Park (Zion Canyon Water System) Culinary,1047,37.28633754,-112.9509146,Spring,Withdrawal,Water Supplier,,,,,,,,,,,,,,
10470003,Lower Grotto Spring (WS003),1996,Active,Zion National Park (Zion Canyon Water System) Culinary,1047,37.25804088,-112.9468342,Spring,Withdrawal,Water Supplier,kgallons,1560.108211,1410.099248,1560.108211,1510.106309,1510.106309,1510.106309,1560.108211,1560.108211,1510.106309,1560.108211,1510.106309,1560.108211,18351.27469
10470003,Lower Grotto Spring (WS003),1997,Active,Zion National Park (Zion Canyon Water System) Culinary,1047,37.25804088,-112.9468342,Spring,Withdrawal,Water Supplier,kgallons,1560.108211,1410.099248,1560.108211,1510.106309,1510.106309,1510.106309,1560.108211,1560.108211,1510.106309,1560.108211,1510.106309,1560.108211,18321.28006
10470003,Lower Grotto Spring (WS003),1998,Active,Zion National Park (Zion Canyon Water System) Culinary,1047,37.25804088,-112.9468342,Spring,Withdrawal,Water Supplier,kgallons,1560.108211,1410.099248,1560.108211,1510.106309,1510.106309,1510.106309,1560.108211,1560.108211,1510.106309,1560.108211,1510.106309,1560.108211,18321.28006
10470003,Lower Grotto Spring (WS003),1999,Active,Zion National Park (Zion Canyon Water System) Culinary,1047,37.25804088,-112.9468342,Spring,Withdrawal,Water Supplier,kgallons,1560.108211,1410.099248,1560.108211,1510.106309,1510.106309,1510.106309,1560.108211,1560.108211,1510.106309,1560.108211,1510.106309,1560.108211,18321.28006
10470003,Lower Grotto Spring (WS003),2000,Active,Zion National Park (Zion Canyon Water System) Culinary,1047,37.25804088,-112.9468342,Spring,Withdrawal,Water Supplier,kgallons,1560.108211,1410.099248,1560.108211,1510.106309,1510.106309,1510.106309,1560.108211,1560.108211,1510.106309,1560.108211,1510.106309,1560.108211,18321.28006
10470003,Lower Grotto Spring (WS003),,Active,Zion National Park (Zion Canyon Water System) Culinary,1047,37.25804088,-112.9468342,Spring,Withdrawal,Water Supplier,,,,,,,,,,,,,,
10470004,Upper Grotto Spring (WS004),1996,Active,Zion National Park (Zion Canyon Water System) Culinary,1047,37.25732785,-112.9467609,Spring,Withdrawal,Water Supplier,kgallons,3040.210121,2740.188935,3040.210121,2940.203059,2940.203059,2940.203059,3040.210121,3040.210121,2940.203059,3040.210121,2940.203059,3040.210121,35682.48125
10470004,Upper Grotto Spring (WS004),1997,Active,Zion National Park (Zion Canyon Water System) Culinary,1047,37.25732785,-112.9467609,Spring,Withdrawal,Water Supplier,kgallons,3040.210121,2740.188935,3040.210121,2940.203059,2940.203059,2940.203059,3040.210121,3040.210121,2940.203059,3040.210121,2940.203059,3040.210121,35682.46496
10470004,Upper Grotto Spring (WS004),1998,Active,Zion National Park (Zion Canyon Water System) Culinary,1047,37.25732785,-112.9467609,Spring,Withdrawal,Water Supplier,kgallons,3040.210121,2740.188935,3040.210121,2940.203059,2940.203059,2940.203059,3040.210121,3040.210121,2940.203059,3040.210121,2940.203059,3040.210121,35682.46496
10470004,Upper Grotto Spring (WS004),1999,Active,Zion National Park (Zion Canyon Water System) Culinary,1047,37.25732785,-112.9467609,Spring,Withdrawal,Water Supplier,kgallons,3040.210121,2740.188935,3040.210121,2940.203059,2940.203059,2940.203059,3040.210121,3040.210121,2940.203059,3040.210121,2940.203059,3040.210121,35682.46496
10470004,Upper Grotto Spring (WS004),,Active,Zion National Park (Zion Canyon Water System) Culinary,1047,37.25732785,-112.9467609,Spring,Withdrawal,Water Supplier,,,,,,,,,,,,,,
10470005,East Gate Well,1996,Inactive,Zion National Park (Zion Canyon Water System) Culinary,1047,37.23376329,-112.8755321,Well,Withdrawal,Water Supplier,kgallons,9.400813714,9.400813714,9.400813714,9.400813714,9.400813714,9.400813714,9.400813714,9.400813714,9.400813714,9.400813714,9.400813714,9.400813714,112.8097646
10470005,East Gate Well,1997,Inactive,Zion National Park (Zion Canyon Water System) Culinary,1047,37.23376329,-112.8755321,Well,Withdrawal,Water Supplier,kgallons,9.400813714,9.400813714,9.400813714,9.400813714,9.400813714,9.400813714,9.400813714,9.400813714,9.400813714,9.400813714,9.400813714,9.400813714,112.8097646
10470005,East Gate Well,1998,Inactive,Zion National Park (Zion Canyon Water System) Culinary,1047,37.23376329,-112.8755321,Well,Withdrawal,Water Supplier,kgallons,9.400813714,9.400813714,9.400813714,9.400813714,9.400813714,9.400813714,9.400813714,9.400813714,9.400813714,9.400813714,9.400813714,9.400813714,112.8097646
10470005,East Gate Well,1999,Inactive,Zion National Park (Zion Canyon Water System) Culinary,1047,37.23376329,-112.8755321,Well,Withdrawal,Water Supplier,kgallons,9.400813714,9.400813714,9.400813714,9.400813714,9.400813714,9.400813714,9.400813714,9.400813714,9.400813714,9.400813714,9.400813714,9.400813714,112.8097646
10470005,East Gate Well,,Inactive,Zion National Park (Zion Canyon Water System) Culinary,1047,37.23376329,-112.8755321,Well,Withdrawal,Water Supplier,,,,,,,,,,,,,,
10470006,Birch Springs (WS001),1996,Active,Zion National Park (Zion Canyon Water System) Culinary,1047,37.23901216,-112.9675676,Spring,Withdrawal,Water Supplier,kgallons,4870.338377,4390.303828,4870.338377,4710.325775,4710.325775,4710.325775,4870.338377,4870.338377,4710.325775,4870.338377,4710.325775,4870.338377,57163.976
10470006,Birch Springs (WS001),1997,Active,Zion National Park (Zion Canyon Water System) Culinary,1047,37.23901216,-112.9675676,Spring,Withdrawal,Water Supplier,kgallons,4870.338377,4390.303828,4870.338377,4710.325775,4710.325775,4710.325775,4870.338377,4870.338377,4710.325775,4870.338377,4710.325775,4870.338377,57163.96296
10470006,Birch Springs (WS001),1998,Active,Zion National Park (Zion Canyon Water System) Culinary,1047,37.23901216,-112.9675676,Spring,Withdrawal,Water Supplier,kgallons,4870.338377,4390.303828,4870.338377,4710.325775,4710.325775,4710.325775,4870.338377,4870.338377,4710.325775,4870.338377,4710.325775,4870.338377,57163.96296
10470006,Birch Springs (WS001),1999,Active,Zion National Park (Zion Canyon Water System) Culinary,1047,37.23901216,-112.9675676,Spring,Withdrawal,Water Supplier,kgallons,4870.338377,4390.303828,4870.338377,4710.325775,4710.325775,4710.325775,4870.338377,4870.338377,4710.325775,4870.338377,4710.325775,4870.338377,57163.96296
10470006,Birch Springs (WS001),,Active,Zion National Park (Zion Canyon Water System) Culinary,1047,37.23901216,-112.9675676,Spring,Withdrawal,Water Supplier,,,,,,,,,,,,,,
10470007,Kolob Well,,Inactive,Zion National Park (Zion Canyon Water System) Culinary,1047,37.46159683,-113.2258347,Well,Withdrawal,Water Supplier,,,,,,,,,,,,,,
10470009,Watercress Spring (WS002),1996,Active,Zion National Park (Zion Canyon Water System) Culinary,1047,37.23801421,-112.9677788,Spring,Withdrawal,Water Supplier,kgallons,2140.149822,1940.135698,2140.149822,2070.143901,2070.143901,2070.143901,2140.149822,2140.149822,2070.143901,2140.149822,2070.143901,2140.149822,25131.75414
10470009,Watercress Spring (WS002),1997,Active,Zion National Park (Zion Canyon Water System) Culinary,1047,37.23801421,-112.9677788,Spring,Withdrawal,Water Supplier,kgallons,2140.149822,1940.135698,2140.149822,2070.143901,2070.143901,2070.143901,2140.149822,2140.149822,2070.143901,2140.149822,2070.143901,2140.149822,25131.75414
10470009,Watercress Spring (WS002),1998,Active,Zion National Park (Zion Canyon Water System) Culinary,1047,37.23801421,-112.9677788,Spring,Withdrawal,Water Supplier,kgallons,2140.149822,1940.135698,2140.149822,2070.143901,2070.143901,2070.143901,2140.149822,2140.149822,2070.143901,2140.149822,2070.143901,2140.149822,25131.75414
10470009,Watercress Spring (WS002),1999,Active,Zion National Park (Zion Canyon Water System) Culinary,1047,37.23801421,-112.9677788,Spring,Withdrawal,Water Supplier,kgallons,2140.149822,1940.135698,2140.149822,2070.143901,2070.143901,2070.143901,2140.149822,2140.149822,2070.143901,2140.149822,2070.143901,2140.149822,25131.75414
10470009,Watercress Spring (WS002),,Active,Zion National Park (Zion Canyon Water System) Culinary,1047,37.23801421,-112.9677788,Spring,Withdrawal,Water Supplier,,,,,,,,,,,,,,
10480001,Levan Well (WS001),,Active,Levan Town,1048,39.55686522,-111.856431,Well,Withdrawal,Water Supplier,,,,,,,,,,,,,,
10480002,Rosebush Springs Group (WS002) (WS003),1996,Active,Levan Town,1048,39.54989038,-111.8146299,Spring,Withdrawal,Water Supplier,kgallons,4900.339518,4900.339518,5000.34658,5000.34658,5600.388952,5800.403076,5900.410138,5900.410138,5700.396014,5400.374828,5000.34658,5000.34658,64104.45828
10480002,Rosebush Springs Group (WS002) (WS003),,Active,Levan Town,1048,39.54989038,-111.8146299,Spring,Withdrawal,Water Supplier,,,,,,,,,,,,,,
10480003,Lower Rosebush Spring,,Inactive,Levan Town,1048,39.54983585,-111.8145725,Spring,Withdrawal,Water Supplier,,,,,,,,,,,,,,
10480004,Tunnel Spring (WS004),1996,Active,Levan Town,1048,39.55155121,-111.8331612,Spring,Withdrawal,Water Supplier,kgallons,0,0,0,0,6600.459571,6600.459571,7100.491622,6900.480757,6800.473695,0,0,0,34002.36522
10480004,Tunnel Spring (WS004),,Active,Levan Town,1048,39.55155121,-111.8331612,Spring,Withdrawal,Water Supplier,,,,,,,,,,,,,,
10480005,Cobble Rock Spring (WS005),,Active,Levan Town,1048,39.51749453,-111.7448929,Spring,Withdrawal,Water Supplier,,,,,,,,,,,,,,
108545411,Levan Park Well (WS007),,Active,Levan Town,1048,39.56252595,-111.8670091,Well,Withdrawal,Water Supplier,,,,,,,,,,,,,,
10490001,Soldier Creek Intake (WS007),,Active,Stockton Municipal Water System,1049,,,Spring,Withdrawal,Water Supplier,,,,,,,,,,,,,,
10490002,Honorine Spring,,Inactive,Stockton Municipal Water System,1049,40.43728413,-112.2921031,Spring,Withdrawal,Water Supplier,,,,,,,,,,,,,,
108541636,Well,,Inactive,Stockton Municipal Water System,1049,40.44061279,-112.3503539,Well,Withdrawal,Water Supplier,,,,,,,,,,,,,,
108542537,Emergency Well (WS009),,Active,Stockton Municipal Water System,1049,40.42912145,-112.313295,Well,Withdrawal,Water Supplier,,,,,,,,,,,,,,
10500001,Arnold Hollow Spring (WS003),,Active,Herriman City (Culinary),1050,40.46780509,-112.0740301,Spring,Withdrawal,Water Supplier,,,,,,,,,,,,,,
10500002,Farmer Spring Area,,Inactive,Herriman City (Culinary),1050,40.47993115,-112.0717829,Spring,Withdrawal,Water Supplier,,,,,,,,,,,,,,
10500003,H.P. Well #1,,Inactive,Herriman City (Culinary),1050,40.51341079,-112.0439827,Well,Withdrawal,Irrigation,,,,,,,,,,,,,,
10500004,HP Well # 1 (WS006),2000,Active,Herriman City (Culinary),1050,40.51252283,-112.0483438,Well,Withdrawal,Water Supplier,kgallons,0,0,0,0,0,0,0,0,0,0,0,0,48992.20219
10500004,HP Well # 1 (WS006),,Active,Herriman City (Culinary),1050,40.51252283,-112.0483438,Well,Withdrawal,Water Supplier,,,,,,,,,,,,,,
10500005,Stockings Meadow Spring aka W.A. Crane,2001,Inactive,Herriman City (Culinary),1050,40.47612103,-112.0740236,Spring,Withdrawal,Water Supplier,kgallons,,,,,,,,,,,,,2628.182513
10500005,Stockings Meadow Spring aka W.A. Crane,,Inactive,Herriman City (Culinary),1050,40.47612103,-112.0740236,Spring,Withdrawal,Water Supplier,,,,,,,,,,,,,,
10500006,HP Well # 3 (WS008),,Active,Herriman City (Culinary),1050,40.49540895,-112.0602087,Well,Withdrawal,Water Supplier,,,,,,,,,,,,,,
10500007,HP Well #4 (WS009),,Active,Herriman City (Culinary),1050,40.49280734,-112.0594484,Well,Withdrawal,Water Supplier,,,,,,,,,,,,,,
10500008,Purchased from Jordan Valley WCD (WS001),2001,Active,Herriman City (Culinary),1050,,,Drain,Transfer In,Water Supplier,kgallons,,,,,,,,,,,,,1929.040961
10500008,Purchased from Jordan Valley WCD (WS001),,Active,Herriman City (Culinary),1050,,,Drain,Transfer In,Water Supplier,,,,,,,,,,,,,,
108540491,Hamilton/Mayor Crane Well,,Inactive,Herriman City (Culinary),1050,40.50733148,-112.0247593,Well,Withdrawal,Water Supplier,,,,,,,,,,,,,,
108540493,Wide Canyon Well #1,,Inactive,Herriman City (Culinary),1050,40.4814419,-112.0578342,Well,Withdrawal,Water Supplier,,,,,,,,,,,,,,
108540686,Bodell Well,,Inactive,Herriman City (Culinary),1050,40.51909705,-112.0327412,Well,Delivery,Water Supplier,,,,,,,,,,,,,,
108541985,"Existing 16`, 400` deep well",,Inactive,Herriman City (Culinary),1050,40.51018885,-112.0053436,Well,Withdrawal,Water Supplier,,,,,,,,,,,,,,
108542174,Hamilton Well (WS002),,Active,Herriman City (Culinary),1050,40.50732941,-112.0249931,Well,Withdrawal,Water Supplier,,,,,,,,,,,,,,
108542475,Tuscany Well (Secondary Water),,Inactive,Herriman City (Culinary),1050,40.52097329,-112.0221719,Well,Withdrawal,Water Supplier,,,,,,,,,,,,,,
108543510,Stillman Well (WS013),,Active,Herriman City (Culinary),1050,40.50819329,-112.016195,Well,Withdrawal,Water Supplier,,,,,,,,,,,,,,
10510001,Dry Canyon Spring (Culinary),2007,Active,Hyrum City Water System,1051,,,Spring,Withdrawal,Water Supplier,kgallons,577,517,488,614,515,531,347,281,228,138,131,112,4479
10510001,Dry Canyon Spring (Culinary),,Active,Hyrum City Water System,1051,,,Spring,Withdrawal,Water Supplier,,,,,,,,,,,,,,
10510002,Main Spring (Culinary),2007,Active,Hyrum City Water System,1051,41.62370267,-111.6756858,Spring,Withdrawal,Water Supplier,kgallons,48216.766,53876.154,56792.876,59212.876,64876.971,66971.871,73291.876,75425.741,67630.971,66897.123,49721.896,47613.899,730529.02
10510002,Main Spring (Culinary),,Active,Hyrum City Water System,1051,41.62370267,-111.6756858,Spring,Withdrawal,Water Supplier,,,,,,,,,,,,,,
10510003,Box Elder Spring (Culinary),2007,Active,Hyrum City Water System,1051,,,Spring,Withdrawal,Water Supplier,kgallons,114,158,172,201,216,187.2,172,158,114,138,112,95,1837.2
10510003,Box Elder Spring (Culinary),,Active,Hyrum City Water System,1051,,,Spring,Withdrawal,Water Supplier,,,,,,,,,,,,,,
10510004,Cold Water Spring (Culinary),,Active,Hyrum City Water System,1051,41.62387548,-111.7335996,Spring,Withdrawal,Water Supplier,,,,,,,,,,,,,,
10510005,Well #1 (Culinary),,Active,Hyrum City Water System,1051,41.63375737,-111.8334194,Well,Withdrawal,Water Supplier,,,,,,,,,,,,,,
10510006,Well No. 2,,Inactive,Hyrum City Water System,1051,41.62725833,-111.8323843,Well,Withdrawal,Water Supplier,,,,,,,,,,,,,,
10510010,Well #3 (Culinary),2007,Active,Hyrum City Water System,1051,41.63011203,-111.7980469,Well,Withdrawal,Water Supplier,kgallons,14972.871,15291.685,16672.875,16185,16375.286,17492.136,0,0,0,0,0,0,96989.853
10510010,Well #3 (Culinary),,Active,Hyrum City Water System,1051,41.63011203,-111.7980469,Well,Withdrawal,Water Supplier,,,,,,,,,,,,,,
10510011,Well #4 (Culinary),,Active,Hyrum City Water System,1051,41.62484907,-111.7952854,Well,Withdrawal,Water Supplier,,,,,,,,,,,,,,
10520001,Delong-Indian Hollow Springs (Group),,Active,Panguitch City (Culinary),1052,37.8194478,-112.4537825,Spring,Withdrawal,Water Supplier,,,,,,,,,,,,,,
10520002,Town Well (WS002),,Active,Panguitch City (Culinary),1052,37.81946613,-112.4538556,Well,Withdrawal,Water Supplier,,,,,,,,,,,,,,
108545004,Well #2 (WS008),,Active,Panguitch City (Culinary),1052,37.8214067,-112.4588271,Well,Withdrawal,Water Supplier,,,,,,,,,,,,,,
10530001,Well,,Active,Mills Farmstead Water Company,1053,,,Well,Withdrawal,Water Supplier,,,,,,,,,,,,,,
10540001,Dry Canyon Springs (WS001),,Active,Lindon City (Culinary),1054,40.34107834,-111.6812329,Spring,Withdrawal,Water Supplier,,,,,,,,,,,,,,
10540002,Well No. 1 (10 in 445 ft deep) (WS002),,Active,Lindon City (Culinary),1054,40.33792905,-111.7083099,Well,Withdrawal,Water Supplier,,,,,,,,,,,,,,
10540003,Well No. 2 (12 in 431 ft deep) (WS003),,Active,Lindon City (Culinary),1054,40.34460875,-111.7110798,Well,Withdrawal,Water Supplier,,,,,,,,,,,,,,
10540004,Well No. 3 (16 in 478 ft deep) (WS004),,Active,Lindon City (Culinary),1054,40.35137557,-111.7109642,Well,Withdrawal,Water Supplier,,,,,,,,,,,,,,
10540005,Well No. 4 (16 in 471 ft deep) (WS005),,Active,Lindon City (Culinary),1054,40.34109012,-111.7165856,Well,Withdrawal,Water Supplier,,,,,,,,,,,,,,
108540892,Well No. 5 (12 in),,Inactive,Lindon City (Culinary),1054,40.37689506,-111.7112324,Well,Withdrawal,Water Supplier,,,,,,,,,,,,,,
10550001,Hayden Well No. 1 (Culinary) (WS009),,Active,Roosevelt City Corporation (Culinary),1055,40.45722945,-109.9748097,Well,Withdrawal,Water Supplier,,,,,,,,,,,,,,
10550002,Hayden Well No. 2 (Culinary) (WS010),,Active,Roosevelt City Corporation (Culinary),1055,40.45653045,-109.9764955,Well,Withdrawal,Water Supplier,,,,,,,,,,,,,,
10550003,Hayden Well No. 3 (Culinary) (WS011),,Active,Roosevelt City Corporation (Culinary),1055,40.45994056,-109.9771409,Well,Withdrawal,Water Supplier,,,,,,,,,,,,,,
10550005,Cove Well No. 1,,Inactive,Roosevelt City Corporation (Culinary),1055,,,Well,Withdrawal,Water Supplier,,,,,,,,,,,,,,
10550006,Cove Well No. 2,,Inactive,Roosevelt City Corporation (Culinary),1055,,,Well,Withdrawal,Water Supplier,,,,,,,,,,,,,,
10550007,Cove Well No. 3,,Inactive,Roosevelt City Corporation (Culinary),1055,,,Well,Withdrawal,Water Supplier,,,,,,,,,,,,,,
10550008,Cove Well No. 4,,Inactive,Roosevelt City Corporation (Culinary),1055,,,Well,Withdrawal,Water Supplier,,,,,,,,,,,,,,
10550009,Cove Well No. 5,,Inactive,Roosevelt City Corporation (Culinary),1055,,,Well,Withdrawal,Water Supplier,,,,,,,,,,,,,,
10550010,Cove Well No. 6,,Inactive,Roosevelt City Corporation (Culinary),1055,,,Well,Withdrawal,Water Supplier,,,,,,,,,,,,,,
10550011,Hayden Well No. 4 (Culinary) (WS013),,Active,Roosevelt City Corporation (Culinary),1055,40.4613212,-109.9742907,Well,Withdrawal,Water Supplier,,,,,,,,,,,,,,
10550012,Cove Well,,Inactive,Roosevelt City Corporation (Culinary),1055,,,Well,Withdrawal,Water Supplier,,,,,,,,,,,,,,
10550013,Campbell Well No. 1,,Inactive,Roosevelt City Corporation (Culinary),1055,,,Well,Withdrawal,Water Supplier,,,,,,,,,,,,,,
10550014,Campbell Well No. 2,,Inactive,Roosevelt City Corporation (Culinary),1055,,,Well,Withdrawal,Water Supplier,,,,,,,,,,,,,,
10550015,Campbell Well No. 3,,Inactive,Roosevelt City Corporation (Culinary),1055,,,Well,Withdrawal,Water Supplier,,,,,,,,,,,,,,
10550016,Campbell Well No. 5,,Inactive,Roosevelt City Corporation (Culinary),1055,40.33078273,-110.0705336,Well,Withdrawal,Water Supplier,,,,,,,,,,,,,,
10550017,Campbell Well No. 4,,Inactive,Roosevelt City Corporation (Culinary),1055,,,Well,Withdrawal,Water Supplier,,,,,,,,,,,,,,
10550018,Campbell Well No. 6,,Inactive,Roosevelt City Corporation (Culinary),1055,,,Well,Withdrawal,Water Supplier,,,,,,,,,,,,,,
10550019,Hayden Well No. 5 (Culinary) (WS016),,Active,Roosevelt City Corporation (Culinary),1055,40.45749136,-109.9743097,Well,Withdrawal,Water Supplier,,,,,,,,,,,,,,
10550020,Sold to Neola Water and Sewer District,,Active,Roosevelt City Corporation (Culinary),1055,40.43317071,-110.0275206,Well,Transfer Out,Water Supplier,,,,,,,,,,,,,,
108540523,Durigan Springs Well (Culinary) (WS015),,Active,Roosevelt City Corporation (Culinary),1055,40.43204922,-109.9327997,Well,Withdrawal,Water Supplier,,,,,,,,,,,,,,
10560001,Well/Springs Group (8146),2014,Active,Sigurd Municipal Water System,1056,38.82678708,-111.9590448,Spring,Withdrawal,Water Supplier,kgallons,1841.62,2107.24,1983.28,2744.72,4214.48,3488.45,3612.41,3169.71,2496.81,2673.89,1841.62,1841.62,32015.85
10560001,Well/Springs Group (8146),,Active,Sigurd Municipal Water System,1056,38.82678708,-111.9590448,Spring,Withdrawal,Water Supplier,,,,,,,,,,,,,,
10560002,Pumped Well (WS002),,Active,Sigurd Municipal Water System,1056,38.83909925,-111.9670149,Well,Withdrawal,Water Supplier,,,,,,,,,,,,,,
10560003,Artesian Well,,Inactive,Sigurd Municipal Water System,1056,38.78846184,-111.92797,Well,Withdrawal,Water Supplier,,,,,,,,,,,,,,
