ID,Station,Elev,Latitude,Longitude,County,Operating Agency
ALM,LAKE ALMANOR,4600,40.218,-121.173,PLUMAS,Pacific Gas & Electric
ANT,ANTELOPE LAKE,4960,40.18,-120.607,PLUMAS,CA Dept of Water Resources/O&M Oroville Field Division
APN,ALPINE LAKE,654,37.94,-122.637,MARIN,Marin Municipal Water District
ATN,LAKE SAN ANTONIO,779,35.798,-120.883,MONTEREY,Monterey County
BCL,BUCKS LAKE STORAGE,5168,39.897,-121.202,PLUMAS,Pacific Gas & Electric
BIO,BRIONES DAM,588,37.9151,-122.207,CONTRA COSTA,East Bay Municipal Utility District
BIT,LAKE BRITTON,2744,41.022,-121.676,SHASTA,Pacific Gas & Electric
BQC,BOUQUET CANYON,3008,34.586714,-118.395314,LOS ANGELES,Los Angeles County
BRD,BEARDSLEY LAKE,3398,38.203,-120.075,TUOLUMNE,Oakdale South San Joaquin Irrigation District
BRT,BARRETT,1607,32.678,-116.669,SAN DIEGO,San Diego County
BRV,BEAR VALLEY DAM,6743,34.242,-116.978,SAN BERNARDINO,Big Bear Municipal Water District
BTV,BUTT VALLEY,4144,40.14802,-121.174174,PLUMAS,Pacific Gas & Electric
BUL,NEW BULLARDS BAR,1965,39.393,-121.14,YUBA,Yuba County Water Agency
BWN,BOWMAN LAKE,5566,39.45,-120.652,NEVADA,Nevada County
BWS,LAKE SPAULDING S YUBA SYSTEM,5390,39.441,-120.658,NEVADA,Pacific Gas & Electric
CAS,CASTAIC,1535,34.5152,-118.6101,LOS ANGELES,CA Dept of Water Resources/O&M Southern Field Division
CFW,BEAR RIVER AT CAMP FAR WEST DAM,260,39.05,-121.317,YUBA,CA Dept of Water Resources/Flood Management
CGS,COGSWELL RESERVOIR,2405,34.245,-117.965,LOS ANGELES,Los Angeles County
CHB,CHABOT,250,37.73,-122.122,ALAMEDA,East Bay Municipal Utility District
CHY,CHERRY LAKE,4715,37.976,-119.913,TUOLUMNE,Hetch Hetchy Water and Power
CLA,CLEAR LK - CACHE CREEK,1336,38.957,-122.642,LAKE,Yolo County Flood Control and Water Consv Dist
CMN,CAMANCHE RESERVOIR,236,38.225,-121.021,SAN JOAQUIN,East Bay Municipal Utility District
CNV,CRANE VALLEY,3380,37.283,-119.517,MADERA,Pacific Gas & Electric
CPL,CAPLES LAKE (EID),7800,38.707,-120.048,ALPINE,El Dorado Irrigation District
CRW,LAKE CROWLEY,6797,37.604,-118.707,MONO,City of Los Angeles; Dept of Water and Power
CRY,LOWER CRYSTAL SPRINGS RESERVOIR,293,37.53,-122.36,SAN MATEO,San Francisco County
CTG,COURTRIGHT (PG&E),8192,37.072,-118.967,FRESNO,Pacific Gas & Electric
CUY,CUYAMACA DAM,4641,32.99,-116.587,SAN DIEGO,National Weather Service
CVE,CALAVERAS,775,37.492,-121.818,ALAMEDA,San Francisco PUC
CYC,COYOTE RES-STA CLARA,755,37.118,-121.549,SANTA CLARA,Santa Clara Valley Water District
DAV,LAKE DAVIS (DWR),5768,39.883,-120.467,PLUMAS,CA Dept of Water Resources/O&M Oroville Field Division
DLV,DEL VALLE,703,37.614,-121.745,ALAMEDA,CA Dept of Water Resources/Operations and Maintenance
DMV,DIAMOND VALLEY,1756,33.67,-117.066,RIVERSIDE,Metropolitan Water District
DNL,DONNER LAKE (STORAGE),5938,39.324,-120.233,NEVADA,Sierra County
EDN,STUMPY MEADOWS RESERVOIR(MARK EDSON DAM),4272,38.903,-120.603,EL DORADO,Georgetown Divide Public Utility District
ELC,EL CAPITAN DAM,600,32.882,-116.808,SAN DIEGO,San Diego County
ENR,LAKE ELEANOR,4660,37.974,-119.88,TUOLUMNE,Hetch Hetchy Water and Power
FLR,FLORENCE LAKE (SCE),7325,37.267,-118.967,FRESNO,"Southern California Edison Company, Big Creek"
FMD,FRENCH MEADOWS,5263,39.112,-120.468,PLACER,Placer County Water Agency
FMT,FAIRMONT RESERVOIR,3060,34.711777,-118.433462,LOS ANGELES,City of Los Angeles; Dept of Water and Power
FRD,FRENCHMAN DAM,5517,39.883,-120.183,PLUMAS,CA Dept of Water Resources/O&M Oroville Field Division
FRL,FRENCH LAKE,6664,39.44,-120.544,NEVADA,Nevada County
GBL,GIBRALTAR DAM,1399,34.526,-119.686,SANTA BARBARA,City of Santa Barbara
GLK,GEM LAKE,9054,37.752,-119.14,MONO,"Southern California Edison Company, Big Creek"
GNT,GRANT LAKE,7140,37.862,-119.102,MONO,City of Los Angeles; Dept of Water and Power
HDG,LAKE HODGES,315,33.046,-117.128,SAN DIEGO,San Diego County
HHL,HELL HOLE (PCWA),4630,39.058,-120.407,PLACER,Placer County Water Agency
HMT,LAKE HEMET,4202,33.666,-116.705,RIVERSIDE,Lake Hemet Muncipal Water District
HNN,LAKE HENNESSEY,331,38.482,-122.372,NAPA,Napa County
HNS,HENSHAW,2740,33.24,-116.762,SAN DIEGO,Vista Irrigation District
HTH,HETCH HETCHY,3870,37.95,-119.783,TUOLUMNE,Hetch Hetchy Water and Power
HWE,HAIWEE,3774,36.137,-117.948,INYO,City of Los Angeles; Dept of Water and Power
ICH,ICE HOUSE (SMUD),5454,38.824,-120.359,EL DORADO,Sacramento Municipal Utility District
INL,INDEPENDENCE LAKE,6952,39.45,-120.283,SIERRA,Sierra County
INV,INDIAN VALLEY,1502,39.083,-122.533,LAKE,Yolo County Flood Control and Water Consv Dist
IRC,IRON CANYON,2675,41.045,-121.981,SHASTA,Pacific Gas & Electric
JCK,JACKSON MEADOWS (NEVADA CO WD),6037,39.509,-120.552,NEVADA,Nevada County
JNK,JENKINSON LAKE,3482,38.713,-120.56,EL DORADO,El Dorado Irrigation District
JNN,LAKE JENNINGS,707,32.854,-116.892,SAN DIEGO,.None Specified
KNT,KENT,415,37.997,-122.702,MARIN,Marin Municipal Water District
LGV,LITTLE GRASS VALLEY,5047,39.724,-121.019,PLUMAS,South Feather Water and Power Agency
LNG,LEXINGTON RESERVOIR,659,37.202,-121.988,SANTA CLARA,Santa Clara County
LON,LOON LAKE (SMUD),6410,38.983,-120.323,EL DORADO,Sacramento Municipal Utility District
LOT,LOWER OTAY,485,32.609,-116.927,SAN DIEGO,City of San Diego
LRA,LEROY ANDERSON,640,37.165,-121.632,SANTA CLARA,Santa Clara Valley Water District
LSB,LOS BANOS,120,37.05,-120.867,MERCED,National Weather Service
LUS,SAN LUIS RESERVOIR (STATE),543,37.001,-121.002,MERCED,CA Dept of Water Resources
LVD,LOVELAND RESERVOIR,1366,32.779,-116.792,SAN DIEGO,South Bay Irrigation District
LVQ,LOS VAQUEROS RESERVOIR,472,37.838,-121.726,CONTRA COSTA,Contra Costa Water District
LVY,LAKE VALLEY RESERVOIR,5855,39.3,-120.583,PLACER,Pacific Gas & Electric
LWB,LOWER BEAR,5824,38.538,-120.257,AMADOR,Pacific Gas & Electric
LYS,LYONS RESERVOIR,4134,38.094,-120.166,TUOLUMNE,Pacific Gas & Electric
MAT,MATILIJA DAM,1138,34.486,-119.307,VENTURA,Ventura County Flood Control District
MCO,LAKE MCCLOUD,2700,41.135,-122.074,SHASTA,Pacific Gas & Electric
MCR,LAKE MCCLURE,867,37.584,-120.267,MARIPOSA,Merced County
MCS,LAKE MC SWAIN,425,37.52,-120.309,MARIPOSA,Merced County
MDO,MODESTO RESERVOIR,210,37.657,-120.675,STANISLAUS,Modesto Irrigation District
MHW,LAKE MATHEWS,1404,33.833,-117.46,RIVERSIDE,Metropolitan Water District
MMR,MIRAMAR,720,32.9,-117.1,SAN DIEGO,San Diego County
MMW,MOUNTAIN MEADOWS,5046,40.283,-121.017,LASSEN,Pacific Gas & Electric
MOR,MORENA DAM,3053,32.683,-116.55,SAN DIEGO,San Diego County
MPL,MAMMOTH POOL,3330,37.329,-119.328,FRESNO,Southern California Edison Company
MRR,MURRAY RES,542,32.782,-117.047,SAN DIEGO,San Diego County
NCA,NICASIO,180,38.075,-122.757,MARIN,Marin Municipal Water District
NCM,NACIMIENTO,784,35.758,-120.884,SAN LUIS OBISPO,Monterey County
ONF,ONEILL FOREBAY,225,37.067,-121.067,MERCED,CA Dept of Water Resources/O&M San Joaquin Field Division
ORO,OROVILLE DAM,900,39.54,-121.493,BUTTE,CA Dept of Water Resources/O&M Oroville Field Division
PAR,PARDEE,568,38.25,-120.85,CALAVERAS,East Bay Municipal Utility District
PLL,LAKE PILLSBURY,1807,39.408,-122.958,LAKE,Pacific Gas & Electric
PRR,PERRIS,1600,33.858,-117.183,RIVERSIDE,CA Dept of Water Resources/O&M Southern Field Division
PRU,LAKE PIRU,213,34.461,-118.751,VENTURA,United Water Conservation District
PT6,PIT R PH #6,32,40.842,-122.001,SHASTA,Pacific Gas & Electric
PT7,PIT R PH #7,1036,40.843,-122.015,SHASTA,Pacific Gas & Electric
PVR,PLEASANT VALLEY RESERVOIR,4400,37.423578,-118.583576,INYO,City of Los Angeles; Dept of Water and Power
PYM,PYRAMID,2606,34.644153,-118.764528,LOS ANGELES,CA Dept of Water Resources/O&M Southern Field Division
RDN,REDINGER LAKE,1403,37.145,-119.449,MADERA,Southern California Edison Company
RLC,RAILROAD CANYON,1398,33.675,-117.272,RIVERSIDE,Elsinore Valley Municipal Water District
RLF,RELIEF,7220,38.267,-119.733,TUOLUMNE,Pacific Gas & Electric
RLL,ROLLINS,2176,39.135,-120.948,PLACER,Nevada County
RTD,RUTH DAM,2675,40.367,-123.433,TRINITY,Humboldt Bay Muncipal Water District
SAT,SAN ANTONIO RESERVOIR,468,37.573,-121.848,ALAMEDA,San Francisco County
SDB,SADDLEBAG LAKE RESERVOIR,10090,37.966,-119.272,MONO,"Southern California Edison Company, Big Creek"
SFL,SCOTTS FLAT,3085,39.274,-120.917,NEVADA,Nevada Irrigation District
SGB,SAN GABRIEL,1481,34.207,-117.858,LOS ANGELES,Los Angeles County
SGC,SANTIAGO CREEK RES (IRVINE LAKE),810,33.785,-117.723,ORANGE,Serrano Irrigation Dist and Irvine Ranch Water Dist
SIV,SILVER LAKE RESERVOIR,7134,38.669,-120.121,AMADOR,El Dorado Irrigation District
SKN,SKINNER,1479,33.583,-117.122,RIVERSIDE,Metropolitan Water District
SLB,SLAB CREEK,1850,38.7725,-120.6994,EL DORADO,Sacramento Municipal Utility District
SLC,SLY CREEK,3536,39.584,-121.116,BUTTE,South Feather Water and Power Agency
SLF,SAN LUIS RESERVOIR (FEDERAL),543,37.001,-121.002,MERCED,CA Dept of Water Resources
SLJ,SOULAJULE DAM,344,38.153,-122.782,MARIN,Marin Municipal Water District
SLK,SOUTH LAKE,9600,37.175903,-118.56266,INYO,CA Dept of Water Resources/Snow Surveys
SLS,SALT SPRINGS,3700,38.497,-120.216,AMADOR,Pacific Gas & Electric
SLW,LAKE SILVERWOOD,3331,34.304,-117.318,SAN BERNARDINO,CA Dept of Water Resources/Operations and Maintenance
SNL,SAN LUIS RESERVOIR,543,37.033,-121.133,MERCED,CA Dept of Water Resources/O&M San Luis Field Division
SNN,SAN ANDREAS,456,37.578,-122.412,SAN MATEO,San Francisco County
SPB,SAN PABLO,330,37.9423,-122.2587,CONTRA COSTA,East Bay Municipal Utility District
SPM,SPICER MEADOWS,6516,38.393,-119.998,TUOLUMNE,Calaveras County
STD,SUTHERLAND RESERVOIR,2074,33.118,-116.787,SAN DIEGO,San Diego County
SVO,SEVEN OAKS DAM,2610,34.1178,-117.0978,SAN BERNARDINO,"Orange, Riverside and San Bernardino Counties"
SVT,SAN VICENTE,560,32.912,-116.924,SAN DIEGO,City of San Diego
SW3,SWEETWATER RESERVOIR,252,32.692,-117.007,SAN DIEGO,South Bay Irrigation District
SWB,STRAWBERRY,5620,38.2,-119.983,TUOLUMNE,Pacific Gas & Electric
TAB,THERMALITO AFTERBAY,140,39.45,-121.633,BUTTE,CA Dept of Water Resources/Operations and Maintenance
TAE,THOMAS A EDISON,7642,37.37,-118.987,FRESNO,"Southern California Edison Company, Big Creek"
TFR,THERMALITO FOREBAY,230,39.519,-121.629,BUTTE,CA Dept of Water Resources
THD,THERMALITO DIVERS POOL,230,39.528,-121.543,BUTTE,CA Dept of Water Resources
TLC,TURLOCK LAKE,244,37.6,-120.583,STANISLAUS,Turlock Irrigation District
TMT,THERMALITO TOTAL,140,39.458,-121.638,BUTTE,CA Dept of Water Resources
TNM,TINEMAHA RESERVOIR,3882,37.058,-118.225,INYO,City of Los Angeles; Dept of Water and Power
UNV,UNION VALLEY,4870,38.864,-120.438,EL DORADO,Sacramento Municipal Utility District
USL,U SAN LEANDRO,477,37.7644,-122.1016,ALAMEDA,East Bay Municipal Utility District
VIL,VAIL LAKE,1470,33.496,-116.976,RIVERSIDE,Rancho Calif Water District
WHR,WHALE ROCK,233,35.45,-120.883,SAN LUIS OBISPO,San Luis Obispo County
WSN,WISHON,6560,37.005,-118.969,FRESNO,Pacific Gas & Electric
